id,name,latitude,longitude,,,,,,,,,
10595,"96m2, 3BR, 2BA, Metro, WI-FI etc...",37.98863,23.76527,,,,,,,,,
10990,Athens Quality Apartments - Deluxe Apartment,37.98903,23.76448,,,,,,,,,
10993,Athens Quality Apartments - Studio,37.98888,23.76473,,,,,,,,,
10995,"AQA-No2 1-bedroom, smart tv, fiber connection,",37.98903,23.76448,,,,,,,,,
27262,"54m2, 1-br, cable tv, wi-fi, metro",37.98924,23.765,,,,,,,,,
28186,❤️Deluxe central loft near Acropolis❤️,37.9768,23.72924,,,,,,,,,
31155,sleep on sailing boat,37.97962,23.71589,,,,,,,,,
33945,Spacious Cosy aprtm very close to Metro!,38.00853,23.72938,,,,,,,,,
40150,Syntagma Heart of Athens free wifi,37.97968,23.73037,,,,,,,,,
48635,Athensstay!Welcome home!metroAttiki,38.00061,23.72128,,,,,,,,,
49489,3bdr apt in the heart of Athens,37.97692,23.7304,,,,,,,,,
54637,Penthouse Parthenon view in Athens,37.96811,23.74345,,,,,,,,,
59663,ATHENS spacious apt Ideal location,37.99095,23.72195,,,,,,,,,
60394,Cosy 1 bedroom apt! Great central Athens location!,37.96543,23.74025,,,,,,,,,
80598,Athens in old historic neighborhood,37.99429,23.70901,,,,,,,,,
82239,Charming 1BR near Acropolis!,37.96528,23.72413,,,,,,,,,
83097,House In Centre,37.96403,23.74407,,,,,,,,,
85400,Plaka area Close to Acropolis  Museum,37.97447,23.72917,,,,,,,,,
85539,The Heart Of Athens,37.99183,23.7298,,,,,,,,,
107433,Athen downtown New Private Bedroom 41,37.98546,23.72861,,,,,,,,,
114570,"""Loft in Space"" | 7th Floor Studio",37.98568,23.73388,,,,,,,,,
119682,Acropolis apartment  GREAT LOCATION,37.9726,23.72536,,,,,,,,,
131133,"Amazing view  2-4/p, Athens center",38.00172,23.74866,,,,,,,,,
133906,Amazing view -2 bedr. sleep 4-7/p ,38.00172,23.74866,,,,,,,,,
138386,"Apartment Dora , Service with style",37.96783,23.7497,,,,,,,,,
144482,NeoClassical Apt: 30meters from Olympic Stadium!,37.96937,23.7417,,,,,,,,,
145478,60m2-AthensCenter-High Class area- Kolonaki,37.97684,23.74206,,,,,,,,,
154243,LUSCIOUS ROOF GARDEN IN THE CENTER!,37.98652,23.73528,,,,,,,,,
155654,"Acropolis cosy  apartment, Koukaki",37.96791,23.72933,,,,,,,,,
157869,Kallimarmaro 2B/R Apartment,37.966,23.74443,,,,,,,,,
167416,"Apartment in Central Athens, Greece",38.00773,23.7387,,,,,,,,,
179705,Great Central location - Athens,37.97537,23.73337,,,,,,,,,
185936,New apartmenrt in Athens!,37.97911,23.70917,,,,,,,,,
196935,Large living space near Syntagma,37.97503,23.73236,,,,,,,,,
200014,"Acropolis view, central location",37.97904,23.70738,,,,,,,,,
201028,SPACE IN ATHENS WITH BREAKFAST 64,37.98544,23.72699,,,,,,,,,
203147,Athens downtown NEW Private bedroom 34,37.9854,23.7278,,,,,,,,,
203157,6-2 - SINGLE BEDS ROOM BREAKFAST TVWIFI 62,37.98429,23.72914,,,,,,,,,
203174,Athen downtown New Private Bedroom 42,37.98448,23.72699,,,,,,,,,
209816,Athens downtown NEW GROUPS 9 PERS App.,37.98532,23.72782,,,,,,,,,
222637,Luxury 3 bdr Apartment with Acropolis view,37.96101,23.73623,,,,,,,,,
240960,ATHENS DESIGNER'S LOFT DOWNTOWN,37.97952,23.72367,,,,,,,,,
251361,A relaxing house overlooking Athens,38.01719,23.74506,,,,,,,,,
270611,An Oasis in the Heart of Athens,37.9858,23.72328,,,,,,,,,
270954,"Apt next to Plaka, roof top with views!",37.9802,23.72357,,,,,,,,,
270973,Boutique apt. Balconies. Roof top.,37.9802,23.72357,,,,,,,,,
280211,BIG FLAT /10 MIN WALK FROM THE ACROPOLIS,37.9657,23.7301,,,,,,,,,
281158,"Center 1, Metro 30m, Satelite TV  ",37.99253,23.73115,,,,,,,,,
281973,cosy classy apartment in Kolonaki,37.97607,23.74075,,,,,,,,,
287858,SWEET SMALL  ATHENS  APPARTMENT ,37.98134,23.72112,,,,,,,,,
306234,Athens AVATON - Parthenon Suite,37.97652,23.72443,,,,,,,,,
308157,#AH32 GREY STUDIO,37.98729,23.74311,,,,,,,,,
309315,Center Athens:Cozy new apt-Plaka,37.97419,23.73151,,,,,,,,,
317049,"Bright apt, large verandah, central & near metro!",37.99089,23.7562,,,,,,,,,
340237,Artistic 2 bedroom apt in Athens centre,37.98018,23.72182,,,,,,,,,
350321,BEAUTIFUL CENTRAL APARTMENT ATHENS,37.9655,23.74346,,,,,,,,,
360940,Vintage Design Flat downtown! ,38.00642,23.73224,,,,,,,,,
361393,Hermes Historical Center apt.,37.98008,23.73012,,,,,,,,,
401423,Apartment with Leafy Backyard Steps from the Acropolis,37.96856,23.72572,,,,,,,,,
408907,Downtown 70m² top floor apartment,37.98209,23.72017,,,,,,,,,
411452,Everyone who stays leaves happy!,37.9929,23.77138,,,,,,,,,
417223,At the heart of Athens- 2 BR - PEN,37.97515,23.75387,,,,,,,,,
441091,Archaeological Museum apartment with balcony,37.99452,23.72941,,,,,,,,,
443914,ACROPOLIS HILL NEOCLASSICAL APARTM.,37.96418,23.71824,,,,,,,,,
443915,ACROPOLIS HILL NEOCLASSICAL APP,37.96382,23.7194,,,,,,,,,
448768,Athens Centre 3min. walk from metro,37.99149,23.72902,,,,,,,,,
452159,Amazing view - 3 bedr. sleep 6-8/p,38.00175,23.7486,,,,,,,,,
469140,Our first love #01 | Thiseio Residencies,37.97618,23.7183,,,,,,,,,
470219,Our Playground #02 | Thiseio Residencies,37.97598,23.71932,,,,,,,,,
474719,Artemis Historical Center cosy apt.,37.97889,23.73026,,,,,,,,,
476197,Alice Inn's Harry Belafonte Suite in Plaka with Acropolis View from Terrace,37.97317,23.73302,,,,,,,,,
478626,Studio for 3 in the heart of Athens,37.9763,23.72455,,,,,,,,,
484852,Cool apartment for urban lovers,37.9945,23.73907,,,,,,,,,
484925,IN THE SHADOW OF ACROPOLIS-2 B/R,37.97289,23.72874,,,,,,,,,
485570,Perfect  place for sightseeing,37.96814,23.71103,,,,,,,,,
495212,MODERN APARTMENT NEAR ACROPOLIS,37.96716,23.72676,,,,,,,,,
496416,"Walk to Plaka, terrace,garden, WiFi",37.9802,23.72357,,,,,,,,,
496503,"2 interconnected apts, walk to all sites!",37.9802,23.72357,,,,,,,,,
496561,In the shadow of Acropolis,37.97273,23.72912,,,,,,,,,
497502,Design studio & lemon tree garden!!,37.96887,23.74274,,,,,,,,,
498604,"Acropolis, Koukaki apartment",37.96367,23.71791,,,,,,,,,
502779,"Bauhaus building, 5 apts, 3 levels. Next to Plaka.",37.9802,23.72357,,,,,,,,,
502842,"1 bedrm apt, terrace, walk to Plaka",37.9802,23.72357,,,,,,,,,
502879,"Garden apt, next to Plaka. Roof top terrace!",37.9802,23.72357,,,,,,,,,
505720,"Central,spacious,pine forest view!!",37.9688,23.74276,,,,,,,,,
505769,Athens Green Apartment with garden!,37.9688,23.74276,,,,,,,,,
536123,Acropolis charming apt with balcony,37.96648,23.7276,,,,,,,,,
536197,"Plaka, modern one bed apt, Cathedral Sq.",37.97506,23.73068,,,,,,,,,
540986,Cosy central studio with garden!!,37.9688,23.74275,,,,,,,,,
541001,Design apartment balcony + garden!!,37.9688,23.74275,,,,,,,,,
545520,Garden Delight in the city center!!,37.96887,23.74274,,,,,,,,,
545616,Design apartment near Syntagma!!,37.9688,23.74275,,,,,,,,,
565235,10min walk from ACROPOLIS !!!,37.96829,23.7111,,,,,,,,,
567938,Live your myth in petralona...,37.97073,23.71511,,,,,,,,,
571492,"Acropolis View Alpha+ Penthouse Walk, Views, WiFI",37.96772,23.74999,,,,,,,,,
571796,Lovely  flat  in Gizi area of Aths!,37.99338,23.75292,,,,,,,,,
571876,"Vintage Apartment Athens, Plaka (Historic Center)",37.97418,23.73276,,,,,,,,,
572435,Acropolis Beta by RealGreece,37.96879,23.75065,,,,,,,,,
583875,Acropolis City Center apartment,37.97617,23.72257,,,,,,,,,
587782,Breath Away National Garden wifi,37.97681,23.73344,,,,,,,,,
590287,Amazing view at quiet/safe neighborhood near metro,38.02547,23.73362,,,,,,,,,
593916,OLD CITY - ACROPOLIS BEST VIEW,37.97355,23.73005,,,,,,,,,
630791,Your Maisonette in the heart of At,37.96148,23.73122,,,,,,,,,
631150,Great design Acropolis apartment,37.96691,23.72823,,,,,,,,,
641721,Beach Summer House,37.97763,23.73473,,,,,,,,,
644785,Modern apartment in city centre - great location,37.97698,23.71008,,,,,,,,,
653639,"2 interconnected apts, roof top, views!",37.98013,23.72354,,,,,,,,,
674018,Spacious Comfy flat -near Acropolis,37.96553,23.73243,,,,,,,,,
681173,Acropolis view - Ideal for longer stays,37.98904,23.73742,,,,,,,,,
688483,Perfect Guest Room near Acropolis!,37.9643,23.73658,,,,,,,,,
691025,Value for money in Heart of Athens!,37.96464,23.73438,,,,,,,,,
695173,Unique Central Artistic Flat Athens,37.96341,23.72875,,,,,,,,,
699974,"SMALL FLAT NEAR STREFI HILL, ATHENS",37.98855,23.741,,,,,,,,,
702480,"Bright, Calming Retreat with a Balcony",38.0011,23.71626,,,,,,,,,
709960,Vintage apartment in historic center,37.97385,23.71567,,,,,,,,,
711554,By the hill,37.96483,23.71825,,,,,,,,,
718941,American style 4 Bed 4 Bath by RealGreece,37.96755,23.75163,,,,,,,,,
724485,5ΤΗ FLOOR WITH A VIEW DOWNTOWN,37.98972,23.73707,,,,,,,,,
725215,"Center 2, Metro 30m, Satelite TV",37.99252,23.73112,,,,,,,,,
726412,Lovely room in historic center,37.97338,23.71537,,,,,,,,,
727374,Casavathel1 Athens Center Apartment,38.01501,23.72582,,,,,,,,,
727526,"Acropolis at your door, A UNIQUE LOFT! 3' to Metro",37.97333,23.72025,,,,,,,,,
728383,Athenian Loft with Acropolis View,37.96063,23.73551,,,,,,,,,
751280,Metro  Acropolis  !!!!!!!!!!!!!!,37.96808,23.72695,,,,,,,,,
753164,STUDIO 18m2 A2  IN ATHENS,38.00798,23.73818,,,,,,,,,
758870,Discover Athens! Central ap/ment!!,37.98116,23.72286,,,,,,,,,
766382,Alice Inn's Fabulous 2BR Anthony Quinn Suite in the Heart of Plaka,37.97153,23.73358,,,,,,,,,
770808,LOCAL VIBES / CENTRAL AREA / COOL SAFE PLACES,37.98069,23.71608,,,,,,,,,
778192,"NEW 4 - 118sq,m.in Athens downtown?Awesome! 4",37.9837,23.72884,,,,,,,,,
781111,Visit Athens as an Athenian,37.97631,23.75181,,,,,,,,,
783657,Artistic studio in Syntagma with Acropolis view,37.97705,23.73144,,,,,,,,,
783955,New- A beautiful apartment,37.9887,23.73489,,,,,,,,,
784414,Nice Apt 98m2 Center Athens,37.99902,23.72908,,,,,,,,,
792097,Athens 5 persons apt./City Center,37.96626,23.75088,,,,,,,,,
800755,❤️The 1 and only Acropolis penthouse!❤️,37.97662,23.72362,,,,,,,,,
807239,Appartment @ Kypriadou district,38.02081,23.74098,,,,,,,,,
809874,Wonderfull Penthouse!!,37.96429,23.72194,,,,,,,,,
811912,PETIT APPARTEMENT A  ATHENES G3  ,38.00805,23.73856,,,,,,,,,
814119,Athens Greece. Kolonaki City Centre,37.97999,23.75133,,,,,,,,,
814643,DRINA,37.98402,23.75483,,,,,,,,,
841788,"Youthful , bright maisonette in central Athens",37.99913,23.73997,,,,,,,,,
841795,"Cozy, independent studio in Athens center",37.99914,23.74021,,,,,,,,,
841806,"Modern,independent studio in Athens with city view",38.00065,23.73971,,,,,,,,,
868095,Amazing Loft for 3 / Athens Center,37.98585,23.73353,,,,,,,,,
878526,Hilton Apartment with Roof Garden,37.97814,23.75388,,,,,,,,,
886724,Luxury Boutique Appartment -Athens,37.99671,23.7376,,,,,,,,,
891184,live@the historic center,37.98248,23.72045,,,,,,,,,
905315,Dream Studio hidden by Μulti level Garden,37.98796,23.73732,,,,,,,,,
906698,"Unique, Rare, 5 Star Home in Plaka -Acropolis view",37.97315,23.73169,,,,,,,,,
912287,New cozy  economic great location  ,38.00146,23.74574,,,,,,,,,
916135,Unique Penthouse Athens Hilton Area,37.97688,23.75254,,,,,,,,,
918776,Athens Soul Apartments Psiri,37.9775,23.72543,,,,,,,,,
918812,Athens Soul Apartments Plaka,37.96986,23.7312,,,,,,,,,
940213,3 apts in 1 building. Roof terrace. Next to Plaka.,37.9802,23.72357,,,,,,,,,
947552,"Smart, simple and comfy in Kolonaki",37.97911,23.74553,,,,,,,,,
956127,Dream Penthouse in Athens-Kolonaki,37.97686,23.74639,,,,,,,,,
956538,Colors in the heart of Athens,37.9801,23.72125,,,,,,,,,
968409,MID- LONG TERM IDEAL FOR EXECUTIVES,37.9809,23.75486,,,,,,,,,
974442,7th floor apartment with great view,37.98876,23.7462,,,,,,,,,
1004858,Academia Loft - Apartment with Pool,37.986,23.71409,,,,,,,,,
1019621,Alice Inn's Adorable Betty Boop Suite in Central Plaka,37.971,23.73211,,,,,,,,,
1021237,Sofia’s apartment in Kolonaki,37.97874,23.74259,,,,,,,,,
1025752,When you need a home...,37.98863,23.7379,,,,,,,,,
1046994,4 apts over 2 levels. Roof top. Next to Plaka!,37.9802,23.72357,,,,,,,,,
1068921,STUDIO 1 WITH BALCON-  INTERNET,38.00643,23.73943,,,,,,,,,
1085660,Stylish Apartment w/Acropolis Views,37.96345,23.73121,,,,,,,,,
1090225,"Center 3, (3-bedr) Metro 50m,Center",37.99463,23.72933,,,,,,,,,
1094063,Modern apartment under Acropolis,37.96843,23.72644,,,,,,,,,
1122600,Terrace loft in historic Athens,37.97697,23.72155,,,,,,,,,
1130640,HOME in Athens' HEART,37.999,23.72747,,,,,,,,,
1154316,Filopappos hill garden house,37.96396,23.72083,,,,,,,,,
1154328,BeAthens: Big Apartment @ Heart of Athens,37.9983,23.72549,,,,,,,,,
1177492,Trad Studio Appt -  Central Athens,37.96653,23.73493,,,,,,,,,
1193610,spacious apartment in Athens,38.01979,23.73821,,,,,,,,,
1199110,Alice Inn's Mighty Aphrodite Suite with Private Balcony,37.9731,23.73212,,,,,,,,,
1208210,LIVE IN STYLE UNDER THE ACROPOLIS RUINS,37.96845,23.72873,,,,,,,,,
1210642,Made for two #04 | Psyrri Square Apartments,37.97776,23.72554,,,,,,,,,
1211595,Cozy apt in central Athens - Mets,37.9667,23.73676,,,,,,,,,
1214643,Sweet Apartment Near Panormou Metro,37.99646,23.766,,,,,,,,,
1215033,Milk man’s place #03 | Psyrri Square Apartments,37.97808,23.72364,,,,,,,,,
1215055,House at the Foothills of Acropolis,37.97266,23.72967,,,,,,,,,
1216176,The Breathtaking View of Acropolis,37.96824,23.73095,,,,,,,,,
1219269,KOLONAKI  THE SAFEST NEIGHBORHOOD,37.98167,23.74057,,,,,,,,,
1222185,LUXURIOUS PENTHOUSE UNIQUE ACROPOLIS VIEW,37.9918,23.71009,,,,,,,,,
1223199,Athens1-Feel it like your own space,37.99875,23.73854,,,,,,,,,
1232080,Penthouse by Archeological Museum,37.99138,23.72893,,,,,,,,,
1232279,☰Vast Apartment ❤ Heart of Athens☰,37.97712,23.72671,,,,,,,,,
1245373,Great loft in the heart of Athens,37.98348,23.73304,,,,,,,,,
1247625,Charming 1bd apartment in Lycabettus hill,37.98545,23.75069,,,,,,,,,
1259830,Exotic Athens loft in downtown-Gazi,37.98103,23.71538,,,,,,,,,
1272844,Small hostel with garden in Mets,37.96525,23.73991,,,,,,,,,
1273159,Apartment under Acropolis-Athens,37.96926,23.7306,,,,,,,,,
1274262,Central Athens/Victoria sq flat,37.99172,23.73036,,,,,,,,,
1274275,Neoclassic loft in Plaka !,37.97294,23.73405,,,,,,,,,
1281833,Kolonaki Colors,37.98006,23.73763,,,,,,,,,
1286210,Zen space near center of Athens,37.98995,23.75891,,,,,,,,,
1315027,Penthouse -Hilton area -great view!,37.9743,23.75492,,,,,,,,,
1368303,ROOFGARDEN CENTRAL APARTMENT NEXT TO METRO,37.99479,23.76513,,,,,,,,,
1372935,ATHENS CENTER  SYNTAGMA SQUARE,37.97587,23.73311,,,,,,,,,
1374299,Casavathel2 Athens Center Apartment,38.01501,23.72582,,,,,,,,,
1426453,Green Penthouse Athens/ Keramikos !,37.98124,23.71747,,,,,,,,,
1447443,your home in the arms of Akropolis,37.9727,23.73281,,,,,,,,,
1452284,"118sq,m.in Athens downtown?SECOND! 3",37.98507,23.72772,,,,,,,,,
1459249,Modern studio in a student accommodation building,37.99983,23.73973,,,,,,,,,
1470809,Filopapos Hill Apartment,37.96727,23.71943,,,,,,,,,
1473284,Room with Balcony in Filopapos Hill,37.96666,23.7208,,,,,,,,,
1473469,Athens2-Feel it like your own space,37.99832,23.73952,,,,,,,,,
1479538,Appointed studio in central urban neighborhood,37.99958,23.73813,,,,,,,,,
1479754,Lovely studio in the heart of Athens,38.00053,23.73906,,,,,,,,,
1482634,Casual and modern studio in Athens city center,37.99971,23.7386,,,,,,,,,
1482747,Trendy and urban studio in athenian center,38.00077,23.7401,,,,,,,,,
1482815,Modern studio in central location,37.99978,23.73883,,,,,,,,,
1482905,Modern Studio located near the heart of Athens,37.9994,23.7401,,,,,,,,,
1482939,Funky studio in the city center,38.00057,23.73862,,,,,,,,,
1483419,Individual studio with view in city center,37.99991,23.73845,,,,,,,,,
1484797,Acropolis Apartment brand new,37.96327,23.71879,,,,,,,,,
1496101,"Cosy, Central & Near Acropolis Museum",37.96371,23.72399,,,,,,,,,
1499953,"Luxury 150m2 in chic, safe & central Kolonaki",37.97998,23.74106,,,,,,,,,
1516652,Cozy Apartment in Petralona,37.96393,23.71092,,,,,,,,,
1525227,Athens Gazi Holidays Apartment,37.97482,23.7075,,,,,,,,,
1529526,Heaven of Wood and Stone in Historic Kolonos,37.99939,23.71822,,,,,,,,,
1568065,"Relax in a very elegant, authentic, quiet & central apartment in Kolonaki Athens",37.97712,23.74386,,,,,,,,,
1575982,"Ideal 43 sq. m. in Athens, Kolonaki",37.97889,23.74278,,,,,,,,,
1615453,Brand New Apartment at Gazi Area,37.98227,23.71172,,,,,,,,,
1627870,Athens Apartment. Elegantly minimal in Petralona,37.96804,23.70951,,,,,,,,,
1639002,minimal style appartment,37.98943,23.74598,,,,,,,,,
1654320,Renovated penthouse with Stunning Views & Netflix,37.98486,23.73911,,,,,,,,,
1659222,Όμορφα ανανεωμένος χώρος με 1 υ/τιο,37.95822,23.73542,,,,,,,,,
1672696,Center NIGHTLIFE of Athens GAZI-110M2 upto 6GUESTS,37.97836,23.70879,,,,,,,,,
1676813,Orpheus' Poetr (Website hidden by Airbnb) ,37.97399,23.71383,,,,,,,,,
1708578,ground little room in strefis,37.98933,23.73871,,,,,,,,,
1734269,9th Heaven,37.95892,23.72305,,,,,,,,,
1743425,strefis 360 view,37.98661,23.73598,,,,,,,,,
1746907,Athensstay Acropolis view 2p-wifi,37.96595,23.72678,,,,,,,,,
1751520,Athensstay Acropolis Foot-metro Fix,37.96605,23.72634,,,,,,,,,
1793287,TopFloor Sunny Apartment  Kolonaki ,37.97799,23.73819,,,,,,,,,
1811588,Stylish loft in a historic building,37.98643,23.73734,,,,,,,,,
1814273,Penthouse Apartment in Exarcheia,37.989,23.74178,,,,,,,,,
1826249,Athens panorama flat ( private room),37.99433,23.74989,,,,,,,,,
1840943,Downtown architect's 2BR apt.,37.98353,23.73569,,,,,,,,,
1843759,Embassy Art House,37.98217,23.75499,,,,,,,,,
1845240,Courtyard apt - Central Athens,37.97207,23.74369,,,,,,,,,
1895040,Athens GREAT Location!,37.99832,23.73961,,,,,,,,,
1900810,#AH02 KOLONAKI PENTHOUSE STUDIO,37.97709,23.745,,,,,,,,,
1905805,Minimal apartment in Athens,38.01962,23.72774,,,,,,,,,
1927601,Amazing Acropolis Private Apartment,37.96689,23.72771,,,,,,,,,
1931405,Heart of Athens luxury apartment near Acropolis,37.97804,23.72343,,,,,,,,,
1952753,Spacious apartment with big veranda,37.99757,23.74264,,,,,,,,,
1954039,Boutique cosy flat central Athens,37.9873,23.75395,,,,,,,,,
1962536,Rent  2 rooms apartment in Athens!,38.00723,23.73373,,,,,,,,,
1980894,"Sail boat jeanneau, San Magic 44",37.96582,23.733,,,,,,,,,
1989905,Impressive Loft in Gazi ☆ Fresh Renovated ☆,37.98108,23.71336,,,,,,,,,
2025216,#AH31 OLIVE STUDIO,37.98729,23.74312,,,,,,,,,
2058736,Bright apartment in Koukaki area!,37.96192,23.7184,,,,,,,,,
2064939,"A&F Leisure and Business, Kolonaki Apartment",37.98147,23.73763,,,,,,,,,
2069270,Hidesign Athens Tube Luxury Apt in Kolonaki,37.97965,23.7392,,,,,,,,,
2103634,SMALL APARTMENT WITH A BACKYARD,37.99941,23.7319,,,,,,,,,
2108703,Amazing Cozy Plaka Acropolis Flat!,37.97055,23.73188,,,,,,,,,
2133917,Private Rooftop Heated Pool with Acropolis View,37.98587,23.71843,,,,,,,,,
2148876,Apartment ideal for family/4persons,37.98321,23.75794,,,,,,,,,
2202169,Cozy & Economic Apt.- Close to metro,38.01343,23.726,,,,,,,,,
2238648,"雅典市中心大三房,配套齐全､家庭首选!厨具餐具全套齐全!两房两卫一大客厅,两个阳台,一个大阳台超爽!",38.01445,23.74099,,,,,,,,,
2240132,Acropolis Cozy Apartment,37.96672,23.73021,,,,,,,,,
2263679,A great venue with classic decor,37.96938,23.74048,,,,,,,,,
2264636,Amazing Acropolis view suite! 5 * stay! Aesthetic!,37.97541,23.73245,,,,,,,,,
2266094,Wonderful flat with amazing view,37.9923,23.7506,,,,,,,,,
2275586,"My plain,cute place!!",37.9945,23.77716,,,,,,,,,
2298125,Cozy Studio quiet located close to Acropolis!,37.95078,23.72244,,,,,,,,,
2299339,One block away from the Akropolis.,37.96891,23.72732,,,,,,,,,
2305770,Acropolis Walk Apartment Brand New,37.96433,23.72054,,,,,,,,,
2306865,Beautiful appartment in Plaka,37.97206,23.73155,,,,,,,,,
2316490,"Double room in Central Athens flat, Greece",37.99954,23.73506,,,,,,,,,
2322698,1869 Athens,37.97924,23.72469,,,,,,,,,
2327323,Modern Loft with Acropolis View (Villa Kats),37.9799,23.72544,,,,,,,,,
2362698,Beautiful penthouse maisonette,37.97732,23.70464,,,,,,,,,
2411465,Kolonaki Studio Apartment,37.97928,23.74593,,,,,,,,,
2428866,"“The Underground Pad” 
Temple of Zeus, City Center",37.96633,23.7347,,,,,,,,,
2487816,"a BEST double room in shared apartment in Athens, walk Acropolis",37.96454,23.74705,,,,,,,,,
2502048,Couch in shared living room in Ampelokipoi,37.99233,23.75644,,,,,,,,,
2513822,Skyline Acropolis View Studio with a Private Patio,37.95969,23.72547,,,,,,,,,
2534822,"Athens center, artist's apt. for 4",37.98554,23.74768,,,,,,,,,
2551382,Eclectic central 3suites apartment,37.97717,23.75244,,,,,,,,,
2579525,Loft apartment with Acropolis view,37.98897,23.73238,,,,,,,,,
2610077,Design Loft with splendid view,37.98137,23.75488,,,,,,,,,
2612931,"30sec to Metro,Central Location!",37.99224,23.72945,,,,,,,,,
2618140,Historic House of 1924  next to Acropolis,37.96597,23.72303,,,,,,,,,
2626061,Acropolis Luxury Duplex House,37.97605,23.71762,,,,,,,,,
2630315,"Probably,the finest loft in Athens!",37.97728,23.72334,,,,,,,,,
2653159,Retro Apartment Next To Metro Stat.,37.99229,23.75862,,,,,,,,,
2655090,Athens Quality Apartments No9 1-bedroom apartment,37.98886,23.76467,,,,,,,,,
2667897,So central and spacious artist's apt!,37.97874,23.73681,,,,,,,,,
2677855,Big and modern apartment central Athens,37.98553,23.72088,,,,,,,,,
2685585,Super location by Acropolis Museum,37.96595,23.72835,,,,,,,,,
2693169,Two Roses: the Blue House,37.98944,23.7578,,,,,,,,,
2693342,Cozy flat close to Kallimarmaro stadium,37.97091,23.74216,,,,,,,,,
2721954,"UniquePlaka apt-A/C, 4'to Syntagma, AcropolisView!",37.97414,23.73406,,,,,,,,,
2725897,Room and private bathroom in Athens,37.97186,23.74679,,,,,,,,,
2739623,Acropolis Appartment and Terrace with view,37.97312,23.73227,,,,,,,,,
2751269,Room with privet bathroom in Athens,37.97159,23.74666,,,,,,,,,
2753388,Shiny Happy Apartment People,38.01279,23.72455,,,,,,,,,
2767564,Safe & Central in Athens,37.99225,23.76889,,,,,,,,,
2793735,Spacious 100 sqm apartmement in central Athens,37.99198,23.71821,,,,,,,,,
2816920,Wonderful apartment under Acropolis (new entry),37.97464,23.7173,,,,,,,,,
2820880,Your home in Athens. Large terrace. Views,37.97866,23.72512,,,,,,,,,
2822037,Amazing terrace | gorgeous loft apartment,37.99483,23.76658,,,,,,,,,
2841806,ALC A Room with a View,37.97472,23.73228,,,,,,,,,
2843975,Hera Historical Center apt.,37.97801,23.72792,,,,,,,,,
2844923,PENTHOUSE UNDER ACROPOLIS,37.97025,23.73092,,,,,,,,,
2850369,New Apartment at Acropolis,37.96636,23.72685,,,,,,,,,
2870872,"Cosy design apartment, Exarchia",37.98444,23.73778,,,,,,,,,
2881665,art and pluralism  !,37.96491,23.70984,,,,,,,,,
2883333,Sunny apt 10' away Acropolis,37.99963,23.71478,,,,,,,,,
2912133,Top roof loft with acropolis view,37.9607,23.73917,,,,,,,,,
2920545,Unique Plaka Annex,37.97489,23.72711,,,,,,,,,
2929796,In the heart of the center,37.96423,23.72773,,,,,,,,,
2932956,Small appartment in athens,37.9785,23.75056,,,,,,,,,
2953049,Studio with Acropolis view,37.97141,23.74302,,,,,,,,,
2973483,Acropolis view-150 metres from Metro Monastiraki!,37.97618,23.7251,,,,,,,,,
2987837,Magical apartment in Pangrati with Acropolis View!,37.96984,23.74318,,,,,,,,,
3012261,Sunny appartment in green area,37.99864,23.77891,,,,,,,,,
3035100,cozy 2bd right in the city center!,37.98877,23.74009,,,,,,,,,
3076368,Elegant apt. under the Acropolis,37.96696,23.7253,,,,,,,,,
3107136,"#10 #11 | Psyrri ""Spiti Mas"" Apartments",37.97744,23.72338,,,,,,,,,
3117246,Acropolis luxury apartment,37.96409,23.7179,,,,,,,,,
3148907,βολικό διαμέρισμα στο κεντρο,37.96746,23.73614,,,,,,,,,
3160736,"Διαμέρισμα,6ου ορόφου,βεραντες, θεα",38.00328,23.72694,,,,,,,,,
3179431,Top of the world! #09 | Psyrri Central Apartments,37.97757,23.72427,,,,,,,,,
3179713,Green Green! #08 | Psyrri Central Apartments,37.97766,23.72373,,,,,,,,,
3180437,Hello Yellow! #07 | Psyrri Central Apartments,37.97757,23.7234,,,,,,,,,
3180549,Another blue on the wall #06 | Psyrri Central Apt,37.97884,23.72557,,,,,,,,,
3180588,Ground studio #05 | Psyrri Central Apartments,37.97754,23.7252,,,,,,,,,
3191191,Apollo Historical Center apt.,37.97824,23.72949,,,,,,,,,
3201537,Acropolis area Appartement,37.96717,23.71243,,,,,,,,,
3251822,apartment in Athen's center,37.98503,23.73706,,,,,,,,,
3290710,Quiet and warm apartment near metro,37.99669,23.76006,,,,,,,,,
3304503,Your stay in Athens-Greece,38.00961,23.73962,,,,,,,,,
3315575,A colorful apartment in Exarchia.,37.98608,23.73235,,,,,,,,,
3316894,Fancy quiet eco flat near acropolis!,37.96419,23.721,,,,,,,,,
3327968,Cosy central penthouse,37.98566,23.71828,,,,,,,,,
3335841,Victoria House ,37.99089,23.7279,,,,,,,,,
3357699,Studio Flat Very central and cool,37.98505,23.74133,,,,,,,,,
3362911,Cozy apartment in the city center,38.01045,23.73017,,,,,,,,,
3381733,"3 apts in 1 building. Roof terrace, garden, views.",37.97968,23.72325,,,,,,,,,
3402831,Steps away from Athens Hilton,37.97464,23.74885,,,,,,,,,
3428808,Acropolis view from your bed,37.97318,23.72851,,,,,,,,,
3431705,2 levels flat in centre of Athens,37.97963,23.72153,,,,,,,,,
3433913,A Cozy Apt in Kolonaki of Athens,37.97884,23.73783,,,,,,,,,
3435208,"Modern, fully equipped, one bedroom apt. Balcony!",37.98005,23.72356,,,,,,,,,
3455329,"Center 4, Penthouse, Metro in 40m",37.99229,23.7298,,,,,,,,,
3461034,1BD with VIEW + TERRACE in center Athens,37.9899,23.76069,,,,,,,,,
3486197,Classic 1950s Athens boutique apartment,38.00377,23.73318,,,,,,,,,
3489508,Cozy Terrace 10min from Acropolis,37.97976,23.71374,,,,,,,,,
3500141,Spacious 2 bedroom apt. near the Acropolis.,37.96851,23.72569,,,,,,,,,
3500826,Double Bed in antique room in Athens centre,37.99026,23.75661,,,,,,,,,
3507695,DELICE HOTEL APARTMENTS,37.97491,23.75031,,,,,,,,,
3510689,Sunny Room in 1960s Flat,37.99879,23.73627,,,,,,,,,
3517805,Apartment near Acropolis,37.9707,23.71315,,,,,,,,,
3536585,Bathe in the Greek sunlight!,38.02764,23.74399,,,,,,,,,
3567765,MODERN APARTMENT CENTER  OF ATHENS,37.97925,23.73493,,,,,,,,,
3585054,"EXARCHIA, CLOSE CENTER & METRO",37.98724,23.73379,,,,,,,,,
3586918,blue petit loft,37.99599,23.73005,,,,,,,,,
3608304,"iGoAthens/stylish,centrally located",37.9696,23.75014,,,,,,,,,
3613267,AMAZING APARTMENT -ACROPOLIS VIEW,37.97641,23.71161,,,,,,,,,
3630518,Arty Sunny Central & Stunning View,37.98808,23.7303,,,,,,,,,
3631750,Miaouli8 Loft 1,37.97888,23.72438,,,,,,,,,
3634873,Loft in the heart of Athens.,37.97615,23.71156,,,,,,,,,
3659325,Cozy aprtm in the centre of Athens!,37.99038,23.75981,,,,,,,,,
3659371,Townhouse in the Historical Centre of Athens,37.97441,23.71492,,,,,,,,,
3671988,Sunny and luxurious renovated apartment inKolonaki,37.9805,23.74531,,,,,,,,,
3704577,Breathtaking Acropolis Penthouse,37.96777,23.73069,,,,,,,,,
3759135,Acropolis Crib Spot,37.97251,23.73006,,,,,,,,,
3766971,Athens City Walk apt,38.00187,23.73429,,,,,,,,,
3770848,At the foot of Acropolis.,37.97047,23.72968,,,,,,,,,
3777874,Holidays with the comfort of home 2,37.96658,23.72311,,,,,,,,,
3786394,Spacious Central Flat in Quiet Leafy Urban Area,37.97462,23.75331,,,,,,,,,
3831850,we saw athens,37.97745,23.7309,,,,,,,,,
3862709,Sweet lovely Apartment,37.97713,23.74375,,,,,,,,,
3866788,A Cosy Apartment Downtown Athens!,37.99081,23.7279,,,,,,,,,
3870785,Room in a modern garden flat,37.99862,23.76569,,,,,,,,,
3913946,Spacious Loft with Acropolis view!,37.97596,23.72439,,,,,,,,,
3936185,"cozy, spacious apartment, pagrati",37.96805,23.74428,,,,,,,,,
3949479,"a COZY double room in shared apartment in Athens, walk Acropolis",37.96454,23.74705,,,,,,,,,
3976641,NS Place | The Athena Suite,37.97566,23.72588,,,,,,,,,
3996023,Apartment in Athens - Hilton area,37.97345,23.74857,,,,,,,,,
4006764,Small Patio flat in Athens Greece,38.01347,23.72273,,,,,,,,,
4014753,Acropolis Luxury Apartment with Balcony,37.97679,23.7179,,,,,,,,,
4014969,Acropolis Luxury Apartment,37.97553,23.7192,,,,,,,,,
4021939,Cosy Artist Appartment,37.97027,23.74547,,,,,,,,,
4024450,Cosy sunny loft with amazing Acropolis view,37.97807,23.72042,,,,,,,,,
4072032,Apartment in Gazi,37.9777,23.70941,,,,,,,,,
4074054,"A beautiful apartment, ethnic style",37.99938,23.75884,,,,,,,,,
4080114,Petit STUDIO in The HEART of ATHENS,38.00051,23.73201,,,,,,,,,
4082831,new apartment ,38.02287,23.73882,,,,,,,,,
4087119,85 sq meters penthouse,37.96706,23.74766,,,,,,,,,
4087770,Penthouse. Private Balcony. Great Views!,37.97934,23.7276,,,,,,,,,
4094400,Flat with courtyard near Acropolis,37.96373,23.71848,,,,,,,,,
4095539,Calm in Kolonaki,37.98158,23.74968,,,,,,,,,
4102498,Fully renovated small & cosy studio,38.00614,23.73976,,,,,,,,,
4107372,"Athens Acropolis, Plaka ,guide map.",37.96665,23.7249,,,,,,,,,
4108994,Lux loft with Acropolis view,37.9785,23.71125,,,,,,,,,
4119683,SoHoAthine Apartment- Acropolis downhill,37.9758,23.71656,,,,,,,,,
4131245,''Athens star'',37.99521,23.73604,,,,,,,,,
4137201,"Central, yet Quiet, Spacious Apt.",37.9697,23.74267,,,,,,,,,
4146889,Chambre près du Musée de L'Acropole,37.96364,23.72917,,,,,,,,,
4163240,Cosy elegant flat near Acropolis,37.97519,23.7314,,,,,,,,,
4175883,The Aesthetic Value,38.00044,23.71742,,,,,,,,,
4176439,Sunny Flat close to Acropolis,37.98459,23.73036,,,,,,,,,
4178088,Private room Monastiraki style,37.97627,23.72345,,,,,,,,,
4178997,#AH17 LARGE STUDIO IN PLAKA,37.97061,23.7307,,,,,,,,,
4189994,Central Vintage Kolonaki 100m2 Penthouse,37.98094,23.73634,,,,,,,,,
4202434,Cozy Studio 10 min from Athens Center,38.01082,23.726,,,,,,,,,
4209759,Cozy apartment for 4 at 4th floor,37.96238,23.73096,,,,,,,,,
4225499,Under the Acropolis,37.97174,23.73211,,,,,,,,,
4232969,-30% WINTER OFFER ACROPOLIS New  Museum  Flat,37.96902,23.72975,,,,,,,,,
4245658,Boutique Penthouse - Athens,37.99621,23.73599,,,,,,,,,
4246787,Touching ACROPOLIS and PARTHENON!!,37.97611,23.72492,,,,,,,,,
4253959,"Sunny, central flat in Attiki",37.9963,23.72611,,,,,,,,,
4263432,Apartment in Athens,37.96071,23.73311,,,,,,,,,
4289381,Take A Walk To Acropolis από Happy Color Apartment Διαμέρισμα,37.97548,23.71383,,,,,,,,,
4319280,Central apartment in Plaka,37.97543,23.73022,,,,,,,,,
4326450,"360o view, central, duplex 5-6th floor penthouse",37.99282,23.74283,,,,,,,,,
4331746,Traveler's dream in Historic Acropolis Downtown,37.96659,23.72603,,,,,,,,,
4333936,Village under the Acropolis,37.97415,23.72895,,,,,,,,,
4341877,Central district by the hill,37.988,23.73713,,,,,,,,,
4366896,"Athens Center, Close to Akropolis",37.96799,23.71154,,,,,,,,,
4386006,Welcome to the Centre of Athens,38.01528,23.73417,,,,,,,,,
4399187,New stylish 1-bdr Kolonaki flat!,37.98074,23.74655,,,,,,,,,
4402592,Ampelokipi apartment 75m2,37.99133,23.75537,,,,,,,,,
4407639,δωμάτιο  ορόφου νοικιαζεται σε γυναικες.,37.99193,23.77055,,,,,,,,,
4414411,Rooftop Athens Central Studio,37.98727,23.73499,,,,,,,,,
4440310,Super central..close to Acropolis.!,37.98537,23.73694,,,,,,,,,
4443443,(2A) Central Apartment in Psirri-Historic Center!,37.98105,23.72294,,,,,,,,,
4453537,Magical apartment,38.0014,23.73047,,,,,,,,,
4463531,Unique Acropolis view apartment,37.99402,23.71847,,,,,,,,,
4505420,Lovely apartment next to Acropolis!,37.96608,23.72913,,,,,,,,,
4521465,Little hidden paradise in Athens,37.96727,23.7109,,,,,,,,,
4590246,Lovely Apartment in the Centre,37.97485,23.74832,,,,,,,,,
4594270,Appartement confortable bien situé,37.98813,23.72912,,,,,,,,,
4603600,Two rooms 1 min walk from Panathenaic Stadio,37.97031,23.74284,,,,,,,,,
4618164,Apartment 150 sq.m on the subway ,37.99688,23.7667,,,,,,,,,
4619721,Home sweet Home,37.96301,23.72348,,,,,,,,,
4627302,"Panathenaic Stadium 1min, Acropolis 20min.",37.9703,23.7417,,,,,,,,,
4635944,BIG CENTRAL ATHENS apt_180 m2 & free Parking,37.99633,23.71871,,,,,,,,,
4636963,Elegant room in sunny penthouse city central,37.99622,23.73147,,,,,,,,,
4640224,Athens Oasis-Central Athens House with Pool,38.01235,23.7294,,,,,,,,,
4649629,Comfortable flat in heart of Athens,37.99,23.72755,,,,,,,,,
4649848,Attiki Metro Station  Penthouse,38.00127,23.72003,,,,,,,,,
4670971,City Elegant 2BR apt. w/t terrasse,37.99649,23.73388,,,,,,,,,
4728119,An Athenian Odyssey in STYLE & COMFORT,37.97636,23.72376,,,,,,,,,
4732205,Comfortable apartment- Near to Acropolis,37.96458,23.72582,,,,,,,,,
4748673,"Cozy apartment near the Acropolis, in Mets",37.96447,23.73379,,,,,,,,,
4754533,Cosy flat in Athens center,37.98544,23.74331,,,,,,,,,
4766077,A Room with a View,37.98117,23.7375,,,,,,,,,
4812115,iGoAthens/Artistic - ideal located,37.96694,23.7453,,,,,,,,,
4857920,"BEDROOM ,hospitality with style!",37.96773,23.74977,,,,,,,,,
4888961,Athens Luxury,38.00335,23.72386,,,,,,,,,
4894536,Single room in the heart of Athens,37.97638,23.72384,,,,,,,,,
4894903,Studio for 2 with view in Athens,37.97638,23.72535,,,,,,,,,
4895267,Twin room in the heart of Athens!,37.97678,23.72466,,,,,,,,,
4895324,Studio for 3 with view in Athens,37.97643,23.72429,,,,,,,,,
4895376,Studio for 4 in the heart of Athens,37.97831,23.72558,,,,,,,,,
4895499,Studio for 4 with view on Acropolis,37.97631,23.72388,,,,,,,,,
4908280,Athens Center Beautiful flat of72m2,38.0075,23.74764,,,,,,,,,
4939649,"Central Penthouse, Acropolis view",37.96402,23.73234,,,,,,,,,
5022865,Cozy apartment in Athens,37.99076,23.74471,,,,,,,,,
5025556,In the heart of the city,37.96769,23.73286,,,,,,,,,
5029402,Refurbished penthouse near Acropolis & city center,37.96969,23.71134,,,,,,,,,
5071690,ALC Breathtaking Parthenon View,37.9749,23.73239,,,,,,,,,
5072525,++Suite room with private bathroom!,37.9967,23.71863,,,,,,,,,
5082663,Athens in your palm with Acropolis view!!!,37.9896,23.71566,,,,,,,,,
5109813,Charmante Zimmer in tolle Gegend,37.97664,23.74545,,,,,,,,,
5129008,Χαλάρωση και άνεση όλο το χρονο,37.96603,23.73321,,,,,,,,,
5130753,Studio near Plato's Academy park,37.98972,23.7124,,,,,,,,,
5147109,Κομβικό σημείο Αθηνών,37.97486,23.73274,,,,,,,,,
5181111,"Exquisite Apartment Athens Old Town, PLAKA center!",37.97113,23.73001,,,,,,,,,
5188935,"Exquisite Studio 3 mins from Acropolis, Plaka area",37.97113,23.73001,,,,,,,,,
5196621,Athens apartment near Acropolis,37.96578,23.72477,,,,,,,,,
5233505,Private Modern Loft with view of Acropolis,37.96527,23.73342,,,,,,,,,
5266430,Big balcony near Acropolis,37.96322,23.7189,,,,,,,,,
5269777,View to Lycabettus,37.98955,23.73328,,,,,,,,,
5299516,Panathenaic Stadium/Acropolis retreat,37.96912,23.7402,,,,,,,,,
5302726,Pagrati Apartment,37.96709,23.75092,,,,,,,,,
5317218,2BR STYLISH TOP FLOOR APT. IN HILTON/METRO AREA,37.97382,23.74838,,,,,,,,,
5333888,"""SAMARA's "" studio",37.95285,23.71947,,,,,,,,,
5392011,Hidden gem in exclusive & safe area,37.97385,23.74304,,,,,,,,,
5392478,Cozy & modern + center + metro + WI-FI,37.99437,23.72791,,,,,,,,,
5426236,"Panoramic view, Central Studio",37.98742,23.76857,,,,,,,,,
5428088,Lovely BLUE private double room in Athens tourist area,37.96364,23.72181,,,,,,,,,
5436680,"Bedroom , living room ,and  kitchen",37.99541,23.76482,,,,,,,,,
5449722,Piedra house,37.97559,23.70961,,,,,,,,,
5464071,"Athens - Central sunny 60m2 apt, metro in 2'",37.99016,23.76097,,,,,,,,,
5476645,"Excellent reviews, 5-guest flat near the Acropolis",37.97739,23.7255,,,,,,,,,
5494322,Gyzi home / room_2 ,37.99593,23.75205,,,,,,,,,
5503683,Sweet house for nice guys!!!,38.0162,23.73963,,,,,,,,,
5507933,Apartment 5' walking from Acropolis,37.96472,23.73242,,,,,,,,,
5508232,Acropolis view!Gazi area,37.97726,23.70743,,,,,,,,,
5530230,Gyzi home_room 1,37.99811,23.75136,,,,,,,,,
5532480,Syntagma ap'tment with terrace view,37.97758,23.73117,,,,,,,,,
5555308,Two Roses: the Olive house,37.98882,23.75565,,,,,,,,,
5571167,72m² Penthouse in central Athens,37.99164,23.74559,,,,,,,,,
5577249,Amazing flat with balcony in Athens,37.98938,23.75747,,,,,,,,,
5577982,Breathtaking Acropolis View Penthouse Suite Plaka,37.97022,23.7307,,,,,,,,,
5604804,Whole floor flat in Athens,38.02513,23.73312,,,,,,,,,
5622755,The best shelter in Athens center!,37.97516,23.7269,,,,,,,,,
5652131,Walk to all archeological sites,37.97312,23.7209,,,,,,,,,
5676228,Luxurious Penthouse- Business ready!!!,37.97233,23.74642,,,,,,,,,
5683244,Stone throw away from Athens Hilton,37.97471,23.74889,,,,,,,,,
5698893,Elegant Neo Classical House Athens center,37.98731,23.74222,,,,,,,,,
5699650,KOLONAKI HOUSE,37.98046,23.74351,,,,,,,,,
5707869,Historical center outside your door!!,37.97583,23.71875,,,,,,,,,
5709843,Room for a Guest,38.0008,23.73136,,,,,,,,,
5725222,Cozy Maisonette close to Acropolis,37.96369,23.72762,,,,,,,,,
5731498,A beautiful 2 bdr house in the heart of Plaka,37.96959,23.73079,,,,,,,,,
5732674,beautiful apartment with view of the Acropolis,37.97557,23.71883,,,,,,,,,
5733243,Cozy room near centre of Athens,38.00529,23.71797,,,,,,,,,
5740652,Stunning Flat in heart of Athens,37.96905,23.74081,,,,,,,,,
5744553,Gazi Boutique Apartment 1,37.98211,23.71471,,,,,,,,,
5745302,Gazi Boutique Apartment 2,37.98195,23.71281,,,,,,,,,
5758600,Cozy house with garden & view,37.96417,23.71182,,,,,,,,,
5759045,Your own space next to Zappeion,37.96943,23.74122,,,,,,,,,
5765659,Sunny appartment near Athens centre,37.99804,23.73958,,,,,,,,,
5783504,SV Acropolis Residence - Garden Suite with Hot Tub,37.969,23.72415,,,,,,,,,
5784623,Amazing Athens Elegant Apartment,37.96534,23.75367,,,,,,,,,
5788192,Studio Under Acropolis Rock in ATH,37.97204,23.73066,,,,,,,,,
5822103,Renovated apartment in Kolonaki,37.97918,23.74586,,,,,,,,,
5832236,Luxury design apart under Acropolis,37.97325,23.73238,,,,,,,,,
5842584,City Center Appartment (61sq.m),37.98853,23.72839,,,,,,,,,
5854074,SUNNY | CENTRAL | COZY | CONVENIENT,37.98271,23.75889,,,,,,,,,
5865464,Cosy studio in the center ofAthens,37.97975,23.74557,,,,,,,,,
5866449,"Near to Panathenaic Stadium,center",37.96929,23.74006,,,,,,,,,
5876659,Near to Panathenaic Stadium,37.97047,23.74142,,,,,,,,,
5943899,Acropolis View & Rooftop in the Heart of Athens,37.97101,23.74827,,,,,,,,,
5952349,"★The Gallery apt, walk to the Acropolis★",37.96209,23.72654,,,,,,,,,
5957664,A cozy apartment in Athens !,38.01755,23.73207,,,,,,,,,
5986411,Welcome to the Center of Athens!,38.01455,23.73245,,,,,,,,,
5989683,ROOF GARDEN FLAT - HEART OF ATHENS,37.97848,23.74508,,,,,,,,,
6008336,2 bedrooms flat in Athens,38.00929,23.74019,,,,,,,,,
6021135,olympian zeus houses 1,37.96727,23.73429,,,,,,,,,
6025848,Cozy Elegance,38.00594,23.73667,,,,,,,,,
6027759,Artistic and comfortable maisonette,38.01061,23.7262,,,,,,,,,
6027890,1930's Residence for Philosophers & Philhellenes,38.00025,23.73749,,,,,,,,,
6034976,Walk to the Archaeological Sites from Executive Apartment,37.96974,23.74034,,,,,,,,,
6039659,Cozy comfort apartment near center,38.00698,23.74597,,,,,,,,,
6049558,"CENTRAL SPACIOUS, BRIGHT FLAT next to Evangelismos",37.97267,23.74857,,,,,,,,,
6064808,"PLAKA BOUTIQUE APT, UNDER ACROPOLIS",37.96941,23.72981,,,,,,,,,
6069036,Acropolis Quiet House,37.97284,23.72907,,,,,,,,,
6090954,STUDIO in the heart of Athens,37.98428,23.73298,,,,,,,,,
6101477,Studio in Athens center,37.99921,23.7372,,,,,,,,,
6101639,A private room & the whole house!!!,37.99643,23.7252,,,,,,,,,
6102064,Apartment in historical center,37.98124,23.71866,,,,,,,,,
6102748,Higher Grounds,37.98535,23.72692,,,,,,,,,
6121433,Super (Hidden by Airbnb) Secret (2),37.99173,23.72997,,,,,,,,,
6125281,Top-floor 99 sq.with Acropolis View,37.95164,23.72092,,,,,,,,,
6163186,Acropolis view- 150m2 flat perfectly located,37.96798,23.73775,,,,,,,,,
6190852,"Home, Greece, myths & fairy-tales I",37.99425,23.72258,,,,,,,,,
6194899,Cosy Apartment in Central Athens.,37.96755,23.70612,,,,,,,,,
6205771,"comfortable, quiet and central",37.96928,23.74375,,,,,,,,,
6212120,Villa Calliope Thiseio Athens.,37.97673,23.71882,,,,,,,,,
6221240,Central 5th Floor Library Flat downtown Athens!,37.98849,23.73407,,,,,,,,,
6222877,Lovely GOLD private double room in Athens tourist area,37.96364,23.72181,,,,,,,,,
6233675,Central Cool & Quiet Contemporary Athens Apartment,37.97796,23.73738,,,,,,,,,
6238580,"""Everland"" Apt. under Acropolis!",37.96279,23.72262,,,,,,,,,
6240267,10 min to Acropolis - the Sunny Family Αpartment,37.96343,23.72172,,,,,,,,,
6241150,☰CHARMING FLAT ❤ HEART OF ATHENS☰,37.97775,23.72414,,,,,,,,,
6241519,""" Dionyssos"" cosy apartment",37.98019,23.71731,,,,,,,,,
6244407,Cosy central apt  - Park view,37.97647,23.75622,,,,,,,,,
6254887,Panorama apt | Cosy room in Athens!,37.99925,23.74465,,,,,,,,,
6275273,lovely shinny room,37.98718,23.73459,,,,,,,,,
6276040,"Atenéo, Sophisticated Flat Along the Marathon Route",37.98781,23.77014,,,,,,,,,
6281763,Luxury Apartment 15min walk from Acropolis,37.95828,23.73677,,,,,,,,,
6304159,Lycabettus 2 bed flat,37.98646,23.74339,,,,,,,,,
6314984,Arty Flat in the heart of Athens,37.97064,23.74092,,,,,,,,,
6329901,Acropolis Suite 360,37.9906,23.71755,,,,,,,,,
6330890,Walk Everywhere - Plaka's heart,37.97355,23.73247,,,,,,,,,
6344685,Cozy central ground level space,37.99732,23.73474,,,,,,,,,
6358486,Athens Heart!!!,37.96735,23.7296,,,,,,,,,
6363438,Cozy studio 5 min from Acropolis,37.96805,23.72674,,,,,,,,,
6372321,"Athens Thissio Acropolis  house, centrally located",37.97503,23.71538,,,,,,,,,
6381924,Cosy Art Central Apartment,37.96457,23.72832,,,,,,,,,
6383348,"Open space ,great spot ... :)  Welcome :)",37.97318,23.7134,,,,,,,,,
6384335,Anesis* apartment,37.9872,23.76751,,,,,,,,,
6395795,"Close to Serum IVF, Netflix TV, clean, quiet",37.98258,23.76086,,,,,,,,,
6396516,TOPKolonakiStudio+Terrace|Stunning Acropolis Views,37.97987,23.73904,,,,,,,,,
6402075,Sunny apart with Lycabettus View - Athens,37.99441,23.73544,,,,,,,,,
6406712,"Central flat, unique Acropolis view",37.97741,23.73083,,,,,,,,,
6410090,Light downtown apartment in Exarchia,37.98505,23.73519,,,,,,,,,
6412268,TopKolonaki 4frl HiEnd- Best Kolonaki Location,37.97884,23.73865,,,,,,,,,
6419427,"Clean, cozy and practical studio for two :)",37.98514,23.71489,,,,,,,,,
6432756,"Ήσυχο σπίτι, 20 λεπτα από το κέντρο",37.96363,23.74687,,,,,,,,,
6441787,Central Athens Flat With a Balcony,37.97231,23.74881,,,,,,,,,
6443477,Sunny room near Acropolis!,37.96294,23.72085,,,,,,,,,
6466621,Penthouse 80 sqm with Acropolis View.,37.98479,23.72143,,,,,,,,,
6468025,Apartment nearby Acropolis &Plaka,37.96817,23.73024,,,,,,,,,
6468915,STUNNING ACROPOLIS VIEW!,37.97857,23.73031,,,,,,,,,
6475877,"Sunny & Spacious, 4' Metro 3'Museum",37.9905,23.72927,,,,,,,,,
6484149,Original Athens Family Home,37.99692,23.74665,,,,,,,,,
6485563,Comfortable apartment 1 step from the centre,37.96816,23.75098,,,,,,,,,
6492393,Full of Charm in Historic Center,37.99044,23.71859,,,,,,,,,
6496940,City center - staps to Akropoli,37.97409,23.7485,,,,,,,,,
6500780,Appt chaleureux environs Acropole,37.96427,23.71744,,,,,,,,,
6510258,Athens view!,37.99413,23.74481,,,,,,,,,
6513276,Acropolis,37.96971,23.72646,,,,,,,,,
6523537,Acropolis sunny open air penthouse,37.9665,23.7316,,,,,,,,,
6533199,Ideal Room for Travellers *,38.01479,23.7379,,,,,,,,,
6557919,Brand New Apartment with Garden,37.99354,23.73019,,,,,,,,,
6574290,Vintage city centre flat - 50m from metro,37.9935,23.72827,,,,,,,,,
6576594,Centrally located apartment with spectacular view,37.97574,23.74821,,,,,,,,,
6579412,Πανέμορφο σπίτι στο Κολωνάκι!,37.97864,23.74104,,,,,,,,,
6593270,Thissio Art House,37.97648,23.71833,,,,,,,,,
6618384,House with yard by the hill,37.96793,23.71375,,,,,,,,,
6621904,Beautiful accommodation with a small garden.,37.98916,23.74004,,,,,,,,,
6622262,In the center with Acropolis View,37.96444,23.72731,,,,,,,,,
6637132,❤️️cozy & quiet studio 9' to metro/7' to Acropolis,37.99781,23.70968,,,,,,,,,
6640980,Cosy architect's studio in center,37.98578,23.75892,,,,,,,,,
6651173,In a garden at the center of Athens,37.98482,23.75544,,,,,,,,,
6652232,Studio overlooking the Parthenon,37.97704,23.73079,,,,,,,,,
6666978,"7th heaven artroom,balcony&rooftop!",37.98549,23.73345,,,,,,,,,
6679720,Bright loft near Acropolis,37.97884,23.72449,,,,,,,,,
6686271,Amazing  Apartment Near Acropolis.,37.97857,23.72454,,,,,,,,,
6687244,Apartment in a two-storey building,37.97927,23.72242,,,,,,,,,
6695783,Top floor Studio! Central Location,37.99174,23.76213,,,,,,,,,
6700706,,38.0141,23.73231,,,,,,,,,
6704233,Apartment under Acropolis,37.97007,23.72756,,,,,,,,,
6707061,Period apartment in central Athens,37.97149,23.71358,,,,,,,,,
6725282,"Close to Acropolis, under Lycabettus in city-heart",37.98734,23.75472,,,,,,,,,
6725564,Cozy Flat in Heart of Acropolis,37.96757,23.72682,,,,,,,,,
6727090,Yiannis' house,37.9913,23.73447,,,,,,,,,
6748079,Athens DownTown!,37.9868,23.73482,,,,,,,,,
6765137,Entire apartment in Parthenon,37.96666,23.7277,,,,,,,,,
6774371,A sweet & cosy 4th floor-flat,37.96169,23.73378,,,,,,,,,
6774591,Deluxe House in the Center_Athens!,37.9604,23.73548,,,,,,,,,
6790561,Nice third floor apartment,38.00399,23.73075,,,,,,,,,
6795028,"Κλασικό, αθηναϊκό διαμέρισμα.",38.00483,23.75302,,,,,,,,,
6826083,Appartment to rent in Athens.,37.99045,23.72196,,,,,,,,,
6830986,Next to Acropolis colorful and cheery apartment,37.96371,23.71804,,,,,,,,,
6844123,"Amazing Acropolis view,2 bedrooms next to metro",37.96843,23.72664,,,,,,,,,
6847532,Room 2,37.98685,23.72942,,,,,,,,,
6850682,Architect’s dream flat,37.9841,23.72413,,,,,,,,,
6875721,Kolonaki square apartment - heart of Athens,37.97696,23.7389,,,,,,,,,
6899760,AMAZING PENTHOUSE -ACROPOLIS VIEW PRIVATE TERRACE,37.9766,23.72617,,,,,,,,,
6906551,"Heart of Athens, comfortable bright",37.98224,23.73556,,,,,,,,,
6906866,Annas Family Home,37.99288,23.72486,,,,,,,,,
6933242,Cosy central top floor studio,37.99949,23.7647,,,,,,,,,
6949579,Superbe appartement en plein centre,37.97338,23.71405,,,,,,,,,
6980008,Your home in the heart of Athens.,37.98383,23.74084,,,,,,,,,
6982366,Lovely Double Bedroom,37.99843,23.72449,,,,,,,,,
6982879,Beloved Room in a Great Flat,38.00064,23.72578,,,,,,,,,
6984391,Acropolis View Super Located Studio,37.97386,23.72878,,,,,,,,,
7003332,Plaka studio with Parthenon view,37.97491,23.72843,,,,,,,,,
7004384,ATHENS (KYPSELI) 113M2 No longer available,38.00275,23.7437,,,,,,,,,
7014948,Apartment in a two-storey building,37.97949,23.72128,,,,,,,,,
7017342,Room 3,37.98743,23.72949,,,,,,,,,
7023091,"""Home, sweet home"" at Acropolis",37.96782,23.72605,,,,,,,,,
7034763,Privet room.,37.96451,23.74894,,,,,,,,,
7047537,Little Chill,38.00412,23.72968,,,,,,,,,
7094301,Central Athens private bedroom,37.96503,23.7358,,,,,,,,,
7107302,Ideal Location. Funky Central Flat,37.97314,23.73408,,,,,,,,,
7146143,Cozy & comfortable apartment in Kolonaki,37.97878,23.7458,,,,,,,,,
7156668,"Spacious, stylish inner-city flat",37.9684,23.75294,,,,,,,,,
7160369,Cosy house in picturesque area,37.96543,23.7143,,,,,,,,,
7199367,Near Thissio metro modern apt,37.97579,23.71383,,,,,,,,,
7209432,Superb loft in the center of Athens,37.98381,23.71944,,,,,,,,,
7215898,Cosy bedroom near Acropolis,37.96083,23.73167,,,,,,,,,
7242357,Quite place near Acropolis n' metro,37.97196,23.71168,,,,,,,,,
7242375,"Apartment, 55cm2, centre of Athens",37.98668,23.73397,,,,,,,,,
7257713,Amazing Athens Downtown Apartment,38.00483,23.72781,,,,,,,,,
7258509,Design flat in the center of Athens,37.98566,23.72264,,,,,,,,,
7270528,Lovely home in the heart of Athens,37.96362,23.72073,,,,,,,,,
7285676,IN FRONT OF METRO AND ACROPOLIS! DIRECT TO AIRPORT,37.97984,23.70854,,,,,,,,,
7326724,Cozy retro flat in Athens' heart!,37.96429,23.73555,,,,,,,,,
7346102,Mouz apartment near metro,37.95728,23.72644,,,,,,,,,
7352618,Luxury Flat in Athens,37.99812,23.75047,,,,,,,,,
7356865,Wonderful apt. in central Athens,37.96757,23.72478,,,,,,,,,
7378928,Aris Athens Suites - D1 Suite,37.96589,23.73133,,,,,,,,,
7379890,80sqm penthouse in Athens center,37.99929,23.74075,,,,,,,,,
7384777,Pink room in the centre of Athens,37.98362,23.71549,,,,,,,,,
7385698,Aris Athens Suites - D2 Suite,37.96664,23.73185,,,,,,,,,
7385886,Aris Athens Suites - K1 Suite,37.96588,23.73129,,,,,,,,,
7386263,Aris Athens Suites - K2 Suite,37.96555,23.73149,,,,,,,,,
7386391,Aris Athens Suites - Diamond Suite,37.96718,23.73292,,,,,,,,,
7386505,Aris Athens Suites - K3 Deluxe Suite,37.96682,23.73275,,,,,,,,,
7386637,Aris Athens Suites - Penthouse Suite K4,37.96657,23.73265,,,,,,,,,
7399597,"ATHENS NEW MUSEUM, STADIUM STUDIO FOR 4 PERS",37.96997,23.74389,,,,,,,,,
7417715,Bright central apartment 60m2,37.98466,23.7174,,,,,,,,,
7423458,Room 1,37.98704,23.72973,,,,,,,,,
7468873,ATHENS CITY CENTER,37.99857,23.73334,,,,,,,,,
7477001,Comfort flat & cozy neighbourhood!,37.96961,23.7127,,,,,,,,,
7490758,,37.97064,23.74348,,,,,,,,,
7506567,Plaka Penthouse with view to Acropolis,37.97481,23.73163,,,,,,,,,
7539542,Apartment in Exarcheia.,37.98614,23.73598,,,,,,,,,
7559058,Awarded Loft in the Center of Athens,37.98233,23.71991,,,,,,,,,
7568664,Χίου 56 - Διαμέρισμα,37.99098,23.72254,,,,,,,,,
7572379,Central Kolonaki - Athenian Oasis.,37.97414,23.74165,,,,,,,,,
7574956,Lovely room in the city center,37.98191,23.71841,,,,,,,,,
7581991,αθηνα γριμανη,37.99659,23.76324,,,,,,,,,
7587337,Blue room in the centre of Athens,37.98439,23.71716,,,,,,,,,
7589764,Agras Apartment,37.97027,23.74184,,,,,,,,,
7590118,Green&romantic aprtmnt city center,37.98173,23.72256,,,,,,,,,
7605233,3min from Stathmos Larisis metro,37.99394,23.72182,,,,,,,,,
7605763,Apartment central Athens Kerameikos,37.97879,23.70657,,,,,,,,,
7629370,"Nea Kypseli 1bdr Apt, residential area",38.00198,23.74804,,,,,,,,,
7629943,lovely penthouse at the center!,38.00473,23.72844,,,,,,,,,
7660473,"City stay  close to  the metro  ""a charming flat""",37.99748,23.73018,,,,,,,,,
7660689,Zen Athens Loft in downtown-Gazi,37.98148,23.71536,,,,,,,,,
7663029,Athens Centraly Located Apt & near Arch Museum,37.98768,23.74255,,,,,,,,,
7664560,Central - Spacious - Comfortable,37.99791,23.73324,,,,,,,,,
7672433,"Artistic small house near Acropolis, Athens Center",37.96479,23.73344,,,,,,,,,
7681466,Luxury Solar Roof Terrace Studio,37.98455,23.76061,,,,,,,,,
7691143,Beautiful place under Acropolis,37.96889,23.72495,,,,,,,,,
7694008,artistic luminous apartment,37.99922,23.73618,,,,,,,,,
7694479,"Near to panathenaic stadium,center2",37.96933,23.74202,,,,,,,,,
7695651,Cozy park studio next to Lycabettus,37.9861,23.74232,,,,,,,,,
7697181,"Sunny, spacious apt in Kolonaki",37.97739,23.74195,,,,,,,,,
7723765,Apt/house in downtown Athens 5 min. from Acropolis,37.95659,23.72912,,,,,,,,,
7744702,107 m2 apartment near Acropolis,37.96712,23.72665,,,,,,,,,
7762740,METRO STATION ATTIKI IN 2 MINUTES... Number 1,37.99804,23.72414,,,,,,,,,
7797582,Urban Surfer's Crib Kolonaki,37.97858,23.73819,,,,,,,,,
7802824,Comfortable flat,37.99779,23.7295,,,,,,,,,
7806633,"Athens heart,cosy&convenient",37.97725,23.74488,,,,,,,,,
7834234,Cosy flat in Athens city centre,37.98557,23.74281,,,,,,,,,
7837682,Retro appartment in Acropolis,37.96854,23.72628,,,,,,,,,
7839356,"Charming apt,6min from city center!",37.99838,23.7212,,,,,,,,,
7859388,"House with yard,Subway (5min.) walk",37.95275,23.72383,,,,,,,,,
7871285,Studio In The Heart of Acropolis,37.97459,23.72855,,,,,,,,,
7880407,Feel home in the heart of Athens,37.97406,23.74952,,,,,,,,,
7881460,Apartment 150sq.m right in front of Acropolis!!,37.96835,23.72901,,,,,,,,,
7907302,(2B) Central Apartment in Psirri-Historic Center!,37.97915,23.72272,,,,,,,,,
7910872,Room in Acropolis-Koukaki,37.96442,23.72282,,,,,,,,,
7942376,Central Acropolis Loft,37.98002,23.71157,,,,,,,,,
7960897,Spacious Apt 1 min away from metro,37.98614,23.72769,,,,,,,,,
7963007,Cozy apt. 5' from metro & Acropolis,37.97297,23.73382,,,,,,,,,
7964139,Metaxourghio Boutique Apartment,37.98687,23.71971,,,,,,,,,
7985111,Cozy & central room under Acropolis,37.97233,23.73195,,,,,,,,,
8026892,5* Penthouse Acropolis View Loft downtown Athens,37.98003,23.71598,,,,,,,,,
8029633,penthouse near to the center,37.96702,23.75174,,,,,,,,,
8048833,Designer flat w/ sunny terrace in upscale Kolonaki,37.97915,23.73618,,,,,,,,,
8083064,Athens Home 1,38.0146,23.73363,,,,,,,,,
8108147,Modern flat next to the city centre,38.00689,23.7296,,,,,,,,,
8181498,"Next to metro,1 bedrooms,Center ATH",37.99402,23.72843,,,,,,,,,
8236519,Διαμερισμα στο Κεντο του Κολωνακιου,37.97869,23.74598,,,,,,,,,
8247865,Relaxing 50m2 flat near the center,38.01399,23.73104,,,,,,,,,
8262175,"Maggy,s confortable appartement",37.96773,23.74849,,,,,,,,,
8281023,,37.98067,23.74819,,,,,,,,,
8281086,Athens Mini Loft View Parthenon,37.97978,23.72508,,,,,,,,,
8281745,Calmans studio center of athehs,37.98214,23.75678,,,,,,,,,
8288957,Old style by the hill of Αcropolis,37.97314,23.71597,,,,,,,,,
8298431,Room 7th floor. View of Athens,38.00041,23.74224,,,,,,,,,
8322450,A-23. ❤of Kolonaki. Chic studio-7mins walk 2 metro,37.9805,23.74463,,,,,,,,,
8326092,One bedroom flat in central Athens,38.00297,23.72887,,,,,,,,,
8332801,Single Room @ Athens centre (Ag.Nikolaos),38.00699,23.72516,,,,,,,,,
8338442,Charming Penthouse Apartment,37.98955,23.74455,,,,,,,,,
8339345,"Bright, cheerful two-bedroom",37.98859,23.74358,,,,,,,,,
8348482,Home sweet home,37.98149,23.73681,,,,,,,,,
8360132,HUGE Apertment near city centre!,38.02598,23.74375,,,,,,,,,
8362158,Central Studio,37.97179,23.74324,,,,,,,,,
8364225,cozy apartment in upscale Pangrati,37.9725,23.74989,,,,,,,,,
8365419,Acropolis metro - free breakfast - 24hour desk,37.96763,23.73084,,,,,,,,,
8379354,Athens flat 120m metro 3 bedrooms,38.0204,23.7287,,,,,,,,,
8397088,ALL TIME CLASSIC,37.99829,23.73267,,,,,,,,,
8404360,Pristine Apartment below Acropolis,37.96336,23.72418,,,,,,,,,
8434336,"Sunny,spacious,panoramic view,6p",37.99933,23.75341,,,,,,,,,
8491235,ARt HoMe -ismos,37.97949,23.7114,,,,,,,,,
8498718,"Quite and sunny, central Athens",38.00256,23.7383,,,,,,,,,
8515875,Lycabbetus Mountain.Centre of Athens Exarcheia,37.98818,23.74479,,,,,,,,,
8546315,Stylish and cozy studio apartment!,37.97377,23.71982,,,,,,,,,
8551279,cozy and artistic apartment,37.99416,23.74798,,,,,,,,,
8563554,Beautiful Apt in Athens next Plaka,37.96879,23.73113,,,,,,,,,
8567406,modern & cozy apartment Neos Kosmos metro station,37.95801,23.73023,,,,,,,,,
8574110,50 sq m apartment in Plaka Area,37.9722,23.73396,,,,,,,,,
8594460,The Chimney,37.98816,23.73166,,,,,,,,,
8605440,Central-comfy home near Athens' national garden,37.96688,23.75118,,,,,,,,,
8607812,κεντρικο μεντερνο κοντα στο μετρο,37.95504,23.71973,,,,,,,,,
8608755,Άνετο σπίτι στο κέντρο της Αθήνας,38.0001,23.72796,,,,,,,,,
8628217,Furnished Apartment Fully Renovate,37.99525,23.76825,,,,,,,,,
8641766,HOME FROM HOME (KONONOS),37.97031,23.75071,,,,,,,,,
8644858,LUXURIOUS APARTMENT,37.99776,23.74315,,,,,,,,,
8657610,Athens -Feel it like your own home,38.00048,23.73914,,,,,,,,,
8662271,Kingsize bed in the heart of Athens,37.9869,23.73454,,,,,,,,,
8670081,nautical house in Athens,38.00761,23.73646,,,,,,,,,
8678502,Lovely Apartment in Athens-Psychiko,37.99851,23.77702,,,,,,,,,
8691660,Artistic Vintage apartment Downtown,37.96646,23.74319,,,,,,,,,
8724046,Nilaya Athens,37.9869,23.74632,,,,,,,,,
8730959,Luxury furnished one-bedroom suite,37.99491,23.76675,,,,,,,,,
8743945,"Nice bedroom in Athens, Pangrati",37.96696,23.75241,,,,,,,,,
8767366,Nostalgia apartment in the center,37.98976,23.72444,,,,,,,,,
8788848,Cozy room in the city center,37.97081,23.74581,,,,,,,,,
8806684,"Athens Centre, Karaiskaki square",37.98677,23.72042,,,,,,,,,
8824752,Urban Downtown Studio Space 1,37.95845,23.73513,,,,,,,,,
8833447,Cozy apt 7 min walk from Acropolis!,37.96376,23.72457,,,,,,,,,
8833510,"Quiet, central, on airport metro & bus line.",37.97651,23.75282,,,,,,,,,
8835412,"Apollo, low budget two room flat",37.99919,23.72195,,,,,,,,,
8835847,"Pleasing home in Ano Petralona, Athens",37.96792,23.71213,,,,,,,,,
8857122,Design Studio in Psirri,37.97855,23.72352,,,,,,,,,
8877871,IN THE SHADOW OF PARTHENON,37.96878,23.73042,,,,,,,,,
8883116,Cozy apartment - Lovely neighborhood,37.96625,23.74256,,,,,,,,,
8885920,Studio in Hip Central Neighborhood,37.96519,23.72488,,,,,,,,,
8895560,Studio close to Athens center,37.98295,23.75957,,,,,,,,,
8907994,Stylish Loft in the Heart of Athens,37.97752,23.72251,,,,,,,,,
8913269,Apartment in Athens (Ano Patisia),38.02842,23.7378,,,,,,,,,
8919942,♥Charming♥ apartment close to metro,38.02097,23.73444,,,,,,,,,
8946786,Heritage house in Athens' heart,37.98099,23.72422,,,,,,,,,
8953729,Elegant apartment in Kolonaki area,37.9801,23.74631,,,,,,,,,
8964967,"Α Private room in Gazi, Athens",37.97664,23.70933,,,,,,,,,
8966105,chez maria,37.99051,23.72172,,,,,,,,,
8982912,Cozy Studio with Acropolis view - Wonderful area,37.98185,23.71734,,,,,,,,,
9001504,Sunny central apartmant,38.0206,23.73349,,,,,,,,,
9016660,Nice art place in Akadimia Platonos,37.98898,23.70865,,,,,,,,,
9023252,2BD cosy + unique downtown app.,37.97153,23.74864,,,,,,,,,
9025283,Ваш дом в Афинах,38.00296,23.71948,,,,,,,,,
9029690,Spacious retro house downtown,37.99186,23.73974,,,,,,,,,
9055820,Boutique Twin,37.97795,23.72534,,,,,,,,,
9055948,Boutique Double,37.97858,23.72601,,,,,,,,,
9067101,Cozy Apartment with Acropolis and Sea View,37.99685,23.74173,,,,,,,,,
9100860,"Stunning Acropolis View, Loft Apt, Central Athens",37.97752,23.72406,,,,,,,,,
9105377,Bedromm in a cozy central apartment,37.98669,23.71593,,,,,,,,,
9113325,Artsy Athens Heart,37.97448,23.71579,,,,,,,,,
9141234,Modern spacious apartment,37.96638,23.74106,,,,,,,,,
9164870,"Athens Center, Spacious (120m), Quiet Apartment",37.97055,23.74945,,,,,,,,,
9176077,ATHENStay Loft,38.01276,23.7351,,,,,,,,,
9178630,Artist's flat in the heart of Athens,37.98658,23.74237,,,,,,,,,
9197175,Quiet zen room 20'on foot from acropolis!,37.96249,23.71934,,,,,,,,,
9203875,Cozy studio 1min from metro Attiki,37.9992,23.72409,,,,,,,,,
9206258,Your home near the Acropolis,37.97321,23.73249,,,,,,,,,
9212877,ACROPOLIS VIEW - 100% authentic Athens experience,37.97939,23.71988,,,,,,,,,
9223182,Gazi Penthouse,37.98183,23.71568,,,,,,,,,
9291989,Central Lycabettus view pr. bath & pr living area,37.98681,23.7434,,,,,,,,,
9296302,"Acropolis: traveller's nest in lovely, quiet area",37.96587,23.72322,,,,,,,,,
9337716,ACROPOLIS PARTHENON PLAKA CENTRAL COZY 39%DISCOUNT,37.97168,23.73212,,,,,,,,,
9340986,Athenian Hospitality Best Price!,37.9803,23.7578,,,,,,,,,
9345041,Incredible view downtown penthouse,37.97876,23.73576,,,,,,,,,
9370232,Breezy & luminous 75m2 apt near the city center,37.96386,23.74218,,,,,,,,,
9378597,Luxury loft studio apartment,37.98182,23.71826,,,,,,,,,
9380205,Room in Acropolis-Koukaki,37.96282,23.72147,,,,,,,,,
9391970,POPULAR+QUIET LOCATION IN KOLONAKI,37.97667,23.73617,,,,,,,,,
9395979,Beds  in Studio apartment,37.95977,23.73521,,,,,,,,,
9399780,"friendly, warm room",37.98265,23.73487,,,,,,,,,
9406903,smartrooms,37.99432,23.72199,,,,,,,,,
9418261,126 m2 Loft in Center of Athens,37.98593,23.73609,,,,,,,,,
9447094,Central Apartment in Athens - Plaka,37.97491,23.72733,,,,,,,,,
9448726,Acropolis Apt With Private Yard - Strict Hygiene,37.96553,23.71497,,,,,,,,,
9471586,Sunny Penthouse near centre with Acropolis view,37.98919,23.71186,,,,,,,,,
9472884,"Charming, fully renovated flat  (AMA (Phone number hidden by Airbnb)",37.98019,23.74328,,,,,,,,,
9483140,Acropolis Comfy Sunny Penthouse,37.96555,23.72975,,,,,,,,,
9484623,Athens Observatory-Apt with View- Amazing Location,37.97402,23.71863,,,,,,,,,
9486927,Studio with Loft near Acropolis,37.96311,23.7188,,,,,,,,,
9500123,ACROPOLIS NEXT TO MONASTIRAKI-1,37.97601,23.72728,,,,,,,,,
9502865,Modern apartmnt 1bd in City center,37.97364,23.73299,,,,,,,,,
9504207,Cozy 1 bedroom apartment in Athens!,37.98175,23.7637,,,,,,,,,
9504857,"The ""Suite 102"" by the Acropolis.",37.97837,23.72296,,,,,,,,,
9510598,"The ""Suite 101"" by the Acropolis.",37.97781,23.72159,,,,,,,,,
9510630,Cozy studio in central Athens,38.00023,23.73594,,,,,,,,,
9525227,"The ""Suite 103"" by the Acropolis.",37.97838,23.72294,,,,,,,,,
9530737,Mansion home in the center,37.95916,23.7371,,,,,,,,,
9536776,Kolonaki - Syntagma penthouse with sea view,37.97414,23.74165,,,,,,,,,
9537267,Newly renovated apartments in the center of Athen,37.99885,23.73001,,,,,,,,,
9541538,Apartment in the center of athens,37.97927,23.70964,,,,,,,,,
9541663,"The ""Suite 201"" by the Acropolis.",37.97838,23.72297,,,,,,,,,
9548700,"The ""Suite 202"" by the Acropolis.",37.97836,23.72296,,,,,,,,,
9548843,"The ""Suite 203"" by the Acropolis.",37.97839,23.72295,,,,,,,,,
9619045,ABA - APARTMENT WITH ACROPOLIS VIEW,37.96696,23.73063,,,,,,,,,
9643620,Private bedroom with a bed and desk,37.99003,23.7483,,,,,,,,,
9656826,Mediterranian light near Acropolis!,37.96563,23.72454,,,,,,,,,
9665205,Renovated apartment Kolonos area,37.99561,23.70919,,,,,,,,,
9674129,Apartment near Acropoli and Filopappou Hill,37.96454,23.7277,,,,,,,,,
9677585,Athens  loft Acropolis front row,37.98033,23.71837,,,,,,,,,
9687220,chameleon youth hostel master sweet,37.97409,23.71645,,,,,,,,,
9691500,Huge flat~idyllic view~city center,37.97431,23.72899,,,,,,,,,
9703400,Bright & cosy loft near the centre,37.97,23.74228,,,,,,,,,
9707877,Come and experience Greek hospitality.,38.00596,23.74667,,,,,,,,,
9711346,Elegant & Boutique Loft@Acropolis,37.97758,23.7249,,,,,,,,,
9718738,Sunny attic. Acropolis-Koukaki.,37.96429,23.71887,,,,,,,,,
9728592,"Cozy apartment, Kolonaki",37.9808,23.74846,,,,,,,,,
9745267,PRIVATE Room  in  Monastiraki  center,37.97624,23.72346,,,,,,,,,
9746382,Luxurious 5 star apartment,37.9747,23.74141,,,,,,,,,
9747483,SUPER CENTRAL LUX APT IN SYNTAGMA KOLONAKI ATHENS,37.97846,23.73671,,,,,,,,,
9748566,La Reserve Grandparent's suit,37.95751,23.72374,,,,,,,,,
9768981,Amazing commercial Office,37.98321,23.7289,,,,,,,,,
9769169,private Bedroom in a loft,37.97985,23.7132,,,,,,,,,
9770854,"Modern apartment, heart of Athens",37.97988,23.73069,,,,,,,,,
9798664,"Acropolis view, central & sunny!",37.97861,23.7228,,,,,,,,,
9831203,Boutique Studio near Temple of Olympian Zeus,37.97338,23.73188,,,,,,,,,
9834032,Beautiful 2 bedroom flat in central Athens!!!,37.96353,23.74013,,,,,,,,,
9838891,"Amazing,sunny penthouse in Athens",38.00003,23.73629,,,,,,,,,
9844087,Walk to the Acropolis From a Minimalist Flat,37.96924,23.72732,,,,,,,,,
9852092,Renovated apartment under Acropolis,37.96862,23.72958,,,,,,,,,
9856108,Cosy apartment near National Museum,37.99194,23.74216,,,,,,,,,
9857607,Refurbished apartment in the center,37.98809,23.75206,,,,,,,,,
9876310,Modern Sunny Flat Under Akropolis!,37.96824,23.72757,,,,,,,,,
9891612,Live like a local in Exarchia,37.98602,23.73975,,,,,,,,,
9912595,Acropolis lovable classical lodging,37.96639,23.72368,,,,,,,,,
9916154,Marie Christine Suite,37.97958,23.74317,,,,,,,,,
9952717,athenologist #1,37.96965,23.72651,,,,,,,,,
9958511,Lovely studio - Special Price,37.99087,23.75059,,,,,,,,,
9970367,"Luxurious,sunny, bright downtown apartment",38.00306,23.75,,,,,,,,,
10008553,Urban Downtown Loft,37.96034,23.73445,,,,,,,,,
10018814,lycabettus roof garden studio,37.98127,23.74492,,,,,,,,,
10027906,3 bdr Apt Incredible Acropolis View,37.97498,23.73062,,,,,,,,,
10031438,IN THE HEART OF ATHENS / ACROPOLIS,37.9648,23.72343,,,,,,,,,
10038081,3 Private Rooms | Cosy flat with view of  Athens,37.99886,23.75656,,,,,,,,,
10045138,Lilo's cozy apt,37.98315,23.76595,,,,,,,,,
10045648,Romantic and Clean Apartment -near Acropolis-,37.96699,23.73076,,,,,,,,,
10048593,Cozy 2 bdr Apt in Athens Center,37.96565,23.73101,,,,,,,,,
10053500,Erato's apartment,38.00055,23.72122,,,,,,,,,
10053765,Διαμερισμα Συνταγμα Ακροπολη Πλακα,37.97508,23.73232,,,,,,,,,
10063292,Cosy apartment in Athens-next to Syntagma Square,37.97445,23.74114,,,,,,,,,
10063597,New Classic Apartment In Psiri ΙΙ,37.97914,23.72152,,,,,,,,,
10064490,Luxury apartment Athens-next to Syntagma Square,37.97414,23.74165,,,,,,,,,
10066465,"Dreamy, Retro & Economic Apt. - Close to metro",38.01435,23.72712,,,,,,,,,
10080423,cozy and charming bedroom in a special flat,37.99529,23.73391,,,,,,,,,
10082567,Ηλιόλουστο διαμέρισμα με θεα.......,37.96062,23.74408,,,,,,,,,
10088481,Unique Artistic Athenian 5-bed room Beautiful Home,37.98738,23.71244,,,,,,,,,
10115941,Cozy apartment,37.98527,23.74283,,,,,,,,,
10127086,"A pleasant minimal apartment, easy to live & move",38.02029,23.73966,,,,,,,,,
10130336,Cosy Home in the heart of Athens,37.98061,23.72085,,,,,,,,,
10130785,super central  - metro Acropolis,37.96761,23.7287,,,,,,,,,
10161062,Luxury Central 2-Bed 2-Bath Flat 7mins to Metro,37.99805,23.73161,,,,,,,,,
10182231,Family friedly apartment,37.96372,23.74147,,,,,,,,,
10184538,Κεντρική γειτονιά της Αθήνας,37.97372,23.74891,,,,,,,,,
10188217,LargeBeautifulVeryCleanCentral Flat,37.98006,23.74098,,,,,,,,,
10257486,"Central Athens, 5' to Metro!",37.99957,23.73113,,,,,,,,,
10258037,"Athens flat. A true home 250m, from Syntagma METRO",37.97488,23.73323,,,,,,,,,
10265257,Grande - Spacious affordable luxury double room near Acropolis Athens,37.9624,23.72169,,,,,,,,,
10271608,Athena's Nest- the best in Athens! A/C AND HEATED!,37.97476,23.73322,,,,,,,,,
10271961,Cozy house with private yard,37.98312,23.71595,,,,,,,,,
10284539,Museum  Apt,37.99155,23.73275,,,,,,,,,
10292091,Επιπλωμενο μοντερνο στουντιο,37.96528,23.74492,,,,,,,,,
10325584,Athens City Center Apt,37.96641,23.7394,,,,,,,,,
10331341,Comfy flat at the centre of Athens,37.98753,23.74599,,,,,,,,,
10336165,City center apartment,37.96463,23.73082,,,,,,,,,
10349116,New Central Penthouse-Stunning View,37.98331,23.7368,,,,,,,,,
10354786,House on the Acropolis rock,37.97402,23.72617,,,,,,,,,
10357301,Apartment Central Athens,37.96655,23.71009,,,,,,,,,
10360991,Fully renovated on Lycabettus Hil,37.98767,23.74814,,,,,,,,,
10364578,"Sunny, central Lycabettus penthouse, stunning view",37.98471,23.74294,,,,,,,,,
10371055,"BEST Location, Monastiraki, In the Heart of Athens",37.9782,23.72537,,,,,,,,,
10374154,Stylish & Comfy in the City Center,37.98729,23.71923,,,,,,,,,
10382889,Driopon Apartment,37.96752,23.71011,,,,,,,,,
10400201,"Mets the secret of central Athens,no cleaning fee!",37.96712,23.73609,,,,,,,,,
10401324,Αthens flat. At the heart of Syntagma square.,37.97495,23.73321,,,,,,,,,
10421511,"ΔΙΑΜΕΡΙΣΜΑ ΣΤΟ ΚΕΝΤΡΟ ΤΗΣ ΑΘΗΝΑΣ, ΕΞΑΡΧΕΙΑ.",37.98691,23.73685,,,,,,,,,
10444344,Cutehome Acropolis/metro sugrou-fix,37.96316,23.72711,,,,,,,,,
10447814,Acropolis Neoclassical Mansion,37.96606,23.7223,,,,,,,,,
10473236,Luxurious 1BD Ap. Historical Athens,37.9715,23.74264,,,,,,,,,
10473625,Modern apartment in central Athens,37.97961,23.74488,,,,,,,,,
10475685,Arts & Acropolis,37.96175,23.72632,,,,,,,,,
10482630,Cozy  studio center uptown near Neo Psichiko,37.99849,23.77233,,,,,,,,,
10488943,House with garden Thissio-Acropolis,37.97245,23.71655,,,,,,,,,
10492029,Holidays with the comfort of home 1,37.96597,23.72298,,,,,,,,,
10492944,Perfect for your holidays in Athens,37.9759,23.71975,,,,,,,,,
10513581,Economy Double room,37.9759,23.72988,,,,,,,,,
10543466,Modern penthouse at syntagma,37.97692,23.72793,,,,,,,,,
10575449,A: HAT - City Centre Air-con/Wi-fi near Metro,37.97121,23.74638,,,,,,,,,
10585531,A&K luxurious central apartment,38.01031,23.73428,,,,,,,,,
10588538,32m² homm Newly renovated loft in Athens,38.0059,23.72413,,,,,,,,,
10596035,Small Apartment - Acropolis Area,37.9645,23.72407,,,,,,,,,
10599434,Come stay in Athens!,38.00005,23.73471,,,,,,,,,
10603975,Luxury Boutique-Acropolis,37.97908,23.72384,,,,,,,,,
10642903,Acropolis heart,37.96962,23.72948,,,,,,,,,
10663978,A Serene Oasis in the Densely Populated Centre,37.98121,23.74022,,,,,,,,,
10669181,Athensapart-Kolonaki best location,37.97692,23.74439,,,,,,,,,
10676887,"Historical City Center Athens Apartment, Gazi",37.98166,23.71908,,,,,,,,,
10682561,3bed Apt Exarcheia,37.98867,23.73465,,,,,,,,,
10692450,Top Floor Vintage-style Apartment,37.97788,23.75431,,,,,,,,,
10743975,Central 7'Metro! Ideal for 4 people with Netflix,37.98771,23.73208,,,,,,,,,
10760257,Cosy studio at The heart of center!,37.97161,23.74237,,,,,,,,,
10765177,"Charming ""pied a terre"" in Athens!",37.97805,23.74014,,,,,,,,,
10795442,BELLA APARTMENT  ATHENS CENTER,37.9913,23.73283,,,,,,,,,
10806105,"Bright, Acropolis-looking Studio in upbeat Mets",37.96528,23.73939,,,,,,,,,
10808869,The White House (Big),37.9878,23.72952,,,,,,,,,
10817455,Roomy Art-Filled Apartment in the Stylish Kolonaki Area,37.97996,23.74058,,,,,,,,,
10820830,CIRCE,38.00458,23.72915,,,,,,,,,
10848223,Apartment in the heart of Athens,37.99017,23.73993,,,,,,,,,
10865731,Live a true Athenian experience_ Center_Metro,37.97933,23.71662,,,,,,,,,
10870083,DreamItAthens: Sunny House at Acropolis' foothills,37.97146,23.72894,,,,,,,,,
10871793,Explore Athens from a Bright and Spacious Apartment in Plaka,37.97329,23.73303,,,,,,,,,
10890756,KONNET APP Olympian Zeus houses 2,37.96604,23.73329,,,,,,,,,
10892077,Beautiful appartment,37.99336,23.74884,,,,,,,,,
10893022,COSY ROOM IN THE CENTER,37.96371,23.72832,,,,,,,,,
10898803,In the center with Amazing view,37.96759,23.73296,,,,,,,,,
10915181,Renovated 1-bedroom at Acropolis!,37.96627,23.72376,,,,,,,,,
10915637,,37.9944,23.72348,,,,,,,,,
10916521,studio down town Athens,37.97967,23.71402,,,,,,,,,
10920899,Neoclassical Flat in Monastiraki,37.97787,23.72824,,,,,,,,,
10959841,Cozy Apartment by the Acropolis,37.97498,23.71826,,,,,,,,,
10989934,Beautifully renovated elegant home near Acropolis,37.964,23.72337,,,,,,,,,
11008646,"cosy, just renovated central flat",37.98328,23.73958,,,,,,,,,
11025310,"Sunny artsy apartment, central near Acropolis!",37.96222,23.72103,,,,,,,,,
11031668,Acropolis View Charming Loft,37.96807,23.72519,,,,,,,,,
11033008,ACROPOLIS VIEW,37.9666,23.73438,,,,,,,,,
11036538,Acropolis view penthouse apartment,37.97983,23.73817,,,,,,,,,
11038469,CENTRAL ATHENS apt 110m2 metro 100m,37.99162,23.71672,,,,,,,,,
11054358,GRSTATH101-1 2BR Luxury Apartment,37.96782,23.72999,,,,,,,,,
11063196,SUPER CENTRAL SPACIOUS AP IN ATHENS,37.97799,23.73743,,,,,,,,,
11102304,Eclectic Abode In Perfect Location,37.98621,23.74222,,,,,,,,,
11107198,Under the Acropolis: The Backyard,37.97939,23.72216,,,,,,,,,
11111075,3 bedroom sunny family apartment,37.96455,23.71317,,,,,,,,,
11112289,Cozy loft  in the center of Athens,37.98592,23.7348,,,,,,,,,
11114078,Apartment Thisio-Central Athens 10'metro+Acropolis,37.97415,23.716,,,,,,,,,
11136190,"Dreamy Apartment in Thisseio, Next to Acropolis Hill",37.97448,23.71937,,,,,,,,,
11137204,Dream apartment @ heart of athens!,37.98881,23.749,,,,,,,,,
11141442,Live as an Athenian in Mets close to Acropolis!!,37.96196,23.73474,,,,,,,,,
11166495,Cozy apartment for Travellers*,38.01488,23.7384,,,,,,,,,
11194291,Ηλιόλουστο διαμπερές οικογενειακό,37.99737,23.73333,,,,,,,,,
11194495,"The Hermes Excellence, Syntagma",37.97518,23.73103,,,,,,,,,
11209161,Anna's apartment near to Acropolis and metro,37.96754,23.71021,,,,,,,,,
11228923,Retro apt 100m2 10min away Syntagma,38.00141,23.71572,,,,,,,,,
11234972,Acropolis Stunning View Loft,37.97585,23.73192,,,,,,,,,
11255178,GAZI ART APARTMENT,37.97903,23.70908,,,,,,,,,
11258897,Private Room (#2) / Artistic flat/Athens Downtown,37.99046,23.72812,,,,,,,,,
11271423,Merlin's Nest,37.97729,23.73961,,,,,,,,,
11272735,Little flat-Acropolis view veranda!,37.97713,23.71,,,,,,,,,
11272924,Penthouse in the centre of Athens,38.00964,23.73331,,,,,,,,,
11291421,,37.99626,23.73838,,,,,,,,,
11298410,Nice Apartment in Athens Centre,37.99893,23.73579,,,,,,,,,
11306525,Harmony Athens residence 120m metro,38.01991,23.72894,,,,,,,,,
11312612,Minimal luxury by the Acropolis 1,37.96787,23.72753,,,,,,,,,
11335951,The Erasmus Flat,38.00455,23.73728,,,,,,,,,
11337659,Apartment rental right in Athens,37.99174,23.72701,,,,,,,,,
11354218,A beautiful corner flat,37.98518,23.73429,,,,,,,,,
11365978,Lak Nirvana's Homes No 16,38.01438,23.72121,,,,,,,,,
11366771,Lak Nirvana's Homes No 15,38.0146,23.72082,,,,,,,,,
11371630,Central Cosy Apartment,37.98602,23.75577,,,,,,,,,
11389273,UNDER THE BEAUTY OF PARTHENON,37.96812,23.73026,,,,,,,,,
11400654,A lovely Private room in Athens,37.96295,23.72207,,,,,,,,,
11402677,Lak Nirvana's Homes No 14,38.01623,23.72084,,,,,,,,,
11403148,"Breathtaking view, most central apt",37.97613,23.7299,,,,,,,,,
11403317,"ACROPOLIS AmazingView,Parking,Metro,A/C,",37.96154,23.73447,,,,,,,,,
11403364,Lak Nirvana's Homes No 13,38.01618,23.72139,,,,,,,,,
11412192,Renovated Home near Athens centre.Next to metro st,37.99285,23.76167,,,,,,,,,
11412697,Sunny Athens Private Townhouse,37.99236,23.71526,,,,,,,,,
11434023,Ηλιολουστο φιλοξενο οικογεννιακο διαμερισμα,38.0071,23.74054,,,,,,,,,
11435461,Cute studio a minute from Acropolis (Koukaki),37.96641,23.72758,,,,,,,,,
11456350,Athina ART Apartment I (RED) Gazi,37.97695,23.70886,,,,,,,,,
11458328,Athina ART Apartment II (BLUE) Gazi,37.97695,23.70884,,,,,,,,,
11477359,Athina ART Apartment III (Yellow),37.97688,23.70888,,,,,,,,,
11495261,Top Floor near Presidential Palace,37.96982,23.74216,,,,,,,,,
11496032,Cozy&Luxury house+city center+70m2,37.98226,23.71547,,,,,,,,,
11496467,Cozy&Luxury house+city center+70m2,37.9811,23.71511,,,,,,,,,
11497266,"Central Athens, 5' to Metro station!",37.99957,23.73113,,,,,,,,,
11499830,Heart of Athens near Filopappou Hill,37.96779,23.71364,,,,,,,,,
11503902,The Local Athenian Experience,37.99631,23.73519,,,,,,,,,
11506233,Charming  1 double bed Studio (Petralona),37.96735,23.7035,,,,,,,,,
11513781,Cosy budget flat in City Center,37.95686,23.73598,,,,,,,,,
11523426,Central Athens Balcony Apartment 2,37.99249,23.72629,,,,,,,,,
11542772,Deluxe  Apt 1 - Center of Athens,37.97696,23.73004,,,,,,,,,
11549545,Amazing Apartment 1 - 5inAthens,37.97822,23.73199,,,,,,,,,
11559952,Beautiful flat near Acropolis!,37.96504,23.72238,,,,,,,,,
11559962,Deluxe Apt 3 - Center of Athens,37.97742,23.73027,,,,,,,,,
11562618,Deluxe Apt 2 - Center of Athens,37.97886,23.73047,,,,,,,,,
11563903,Boutique Apt 4-Center of Athens,37.97719,23.73068,,,,,,,,,
11565071,Boutique Apt 5-Center of Athens,37.97662,23.73182,,,,,,,,,
11566709,Amazing Apartment 2 -5inAthens,37.97819,23.732,,,,,,,,,
11566981,Amazing Apartment 3- 5inAthens,37.9788,23.73162,,,,,,,,,
11567265,Spacious modern living in Acropolis,37.96675,23.72325,,,,,,,,,
11567559,Attic Apartment 5 - 5inAthens,37.9768,23.7321,,,,,,,,,
11575107,Absolute  Apartment Athens,37.99855,23.72578,,,,,,,,,
11585747,Very nice appartment in Panormou,37.99567,23.76411,,,,,,,,,
11597122,Renovated Fully Equipped Apartment,38.01409,23.73103,,,,,,,,,
11598511,Zen apartment | 10min Center | 50m metro,38.01941,23.73072,,,,,,,,,
11604027,5 bedroom apt in central Athens,37.98647,23.72221,,,,,,,,,
11612054,3 bdr apartment near the Acropolis,37.96712,23.72943,,,,,,,,,
11614090,5min walking distance fromAcropolis,37.96623,23.73547,,,,,,,,,
11624615,CENTRAL CLASSY APARTMENT IN ATHENS,37.97789,23.73759,,,,,,,,,
11646666,KYMA Apartments - Athens Acropolis 1,37.96136,23.72402,,,,,,,,,
11661741,Athens authentic apt. in Plaka,37.97401,23.73062,,,,,,,,,
11669024,Acropolis view very center,37.96444,23.72731,,,,,,,,,
11669168,Cosy penthouse  studio in the heart of Athens!,37.99383,23.73005,,,,,,,,,
11670340,"The Hermes Perfection, Syntagma",37.9769,23.7294,,,,,,,,,
11670570,Sunny 115m2 apartment with veranda,37.99014,23.73334,,,,,,,,,
11670774,"The Hermes Supremacy, Syntagma",37.97748,23.72968,,,,,,,,,
11689383,Acropolis studio_Old Athens style!,37.9763,23.72307,,,,,,,,,
11691209,Cozy Apartment in Athens | 7 min from Metro,37.99205,23.77021,,,,,,,,,
11704139,APARTMENT IN THE CENTER OF ATHENS,37.97806,23.73538,,,,,,,,,
11706912,ARTISTIC APARTMENT-HEART OF ATHENS,37.96763,23.71193,,,,,,,,,
11716595,Δόσης Κωνσταντίνος (Phone number hidden by Airbnb),37.9956,23.74834,,,,,,,,,
11725379,Cozy loft with private terrace,37.97937,23.72903,,,,,,,,,
11731014,Hidesign Athens Luxury Apartment in Kolonaki,37.97835,23.74989,,,,,,,,,
11732378,House in the center near  Acropolis,37.96409,23.73443,,,,,,,,,
11735275,Central next to many hotels,37.98691,23.72617,,,,,,,,,
11746383,City centre spacious retreat,37.97423,23.74647,,,,,,,,,
11753119,PRIVATE STUDIO NEAR ACROPOLIS,37.9674,23.70201,,,,,,,,,
11754850,Colorful Spot,37.96849,23.71115,,,,,,,,,
11779908,"✶Sunny, 5 min to The Parthenon, walk everywhere✶",37.97398,23.71389,,,,,,,,,
11800815,"Central sunny 25sq flat, 6th floor",37.99075,23.73707,,,,,,,,,
11807280,Ground Floor Residence(near the center of Athens)!,38.01993,23.73262,,,,,,,,,
11815146,PENTHOUSE APARTMENT - LAST FLOOR,37.96419,23.74273,,,,,,,,,
11816352,Artistic Apartment beside Acropolis,37.96828,23.72675,,,,,,,,,
11816743,Ageliki & Stergios,37.99037,23.75794,,,,,,,,,
11820303,Cosy Double Bedroom,37.99123,23.73226,,,,,,,,,
11821517,Georgia's House,37.96851,23.7306,,,,,,,,,
11823861,ELITE apartment 5 min to Acropolis,37.96637,23.73053,,,,,,,,,
11828808,Sunny&spacious with antique furniture in Kolonaki,37.97669,23.7441,,,,,,,,,
11831218,Stylish Apartment near Acropolis,37.96434,23.72323,,,,,,,,,
11839044,Stylish Penthouse Acropolis VIEW Private Room,37.96126,23.73046,,,,,,,,,
11857429,"Acropolis view, top-floor flat, in Athens center",37.98958,23.7224,,,,,,,,,
11861464,Acropolis view  Rooftop,37.97676,23.72127,,,,,,,,,
11880078,Superb Acropolis view cosy studio in the center,37.97855,23.72654,,,,,,,,,
11880700,1-Bedroom very sweet & central Flat,37.98607,23.76487,,,,,,,,,
11887303,Acropolis' Ring Luxury Apartment,37.96586,23.71848,,,,,,,,,
11899423,Hidesign Athens Luxury Studio in Kolonaki,37.97691,23.74976,,,,,,,,,
11903795,Pastel-Perfect Sanctuary Steps from the Acropolis Museum,37.96776,23.72866,,,,,,,,,
11906817,Cozy flat on the square of Kypseli,38.00206,23.74268,,,,,,,,,
11921399,Design studio in Plaka.,37.97393,23.73167,,,,,,,,,
11922831,Stylish Syntagma apartment in the heart of Athens,37.97696,23.73063,,,,,,,,,
11937600,Lycabetus central cosy apt,37.98142,23.75259,,,,,,,,,
11938755,Helios downtown metro,37.99758,23.72176,,,,,,,,,
11942195,"Vintage apartment , 700m from metro",37.99727,23.71333,,,,,,,,,
11947560,Boutique Apartment in Central Athens,37.98635,23.75084,,,,,,,,,
11957139,Lovely apartment in Athens Plaka,37.97397,23.73127,,,,,,,,,
11964589,Romantic flat under the Acropolis,37.96745,23.72929,,,,,,,,,
11967634,CENTRAL ACCOMMODATION FOR UP TO 18,37.97864,23.73686,,,,,,,,,
11969187,5th Floor Sunny Apt in Kypseli,37.99823,23.73863,,,,,,,,,
11979262,Good central  area HOME +Terrace Acropolis view 2,37.96151,23.74315,,,,,,,,,
11989327,Michel's Cozy Apartment,37.96161,23.73115,,,,,,,,,
11999062,Acropolis View near City Center,37.95977,23.7305,,,,,,,,,
12013947,Pantheon in Athens,37.99118,23.72677,,,,,,,,,
12023315,Sunny Sepolia 1st Floor,38.00076,23.71194,,,,,,,,,
12038136,Stylish Penthouse Acropolis/City VIEW Private Room,37.96157,23.73082,,,,,,,,,
12059826,"Sunny, large, modern next to Metro",37.99246,23.763,,,,,,,,,
12062350,Amazing view 3BDR apartment,37.99571,23.74893,,,,,,,,,
12065268,CENTRAL FLAT 5' METRO- WITH VIEW ΟΝ THE HILL!,37.9835,23.7247,,,,,,,,,
12076232,3 bedrooms apartment in City Center,37.9641,23.72804,,,,,,,,,
12079076,"Stylish, Boutique Loft with Private Balcony",37.97768,23.71034,,,,,,,,,
12099646,"Cosy studio,Kolonaki,Athens Greece",37.98002,23.74731,,,,,,,,,
12100463,Smart apartment near Acropolis,37.96622,23.73427,,,,,,,,,
12100635,Concierge Athens I-Luxury Apartment,37.97727,23.72503,,,,,,,,,
12101265,Concierge Athens I-City Loft,37.97727,23.72503,,,,,,,,,
12102428,Concierge Athens I-Doma Terrace,37.97727,23.72503,,,,,,,,,
12102960,Concierge Athens II - Loft A1,37.97799,23.72865,,,,,,,,,
12103939,Concierge Athens II - Loft A2,37.97799,23.72865,,,,,,,,,
12104645,"Small, top-floor studio with view",38.02487,23.74054,,,,,,,,,
12105043,Concierge Athens II - Loft B1,37.97799,23.72865,,,,,,,,,
12105439,Concierge Athens II - Loft B2,37.97799,23.72865,,,,,,,,,
12120904,"Elegant flat, 3min from Acropolis",37.96839,23.72822,,,,,,,,,
12121787,Beautiful Flat city center,37.96683,23.74516,,,,,,,,,
12122321,Sunny green fully equipped flat Athens center!,38.00892,23.73274,,,,,,,,,
12127611,Modern apartent in the center,37.97828,23.70982,,,,,,,,,
12131708,Cute studio in Koukaki at the footstep of Acropoli,37.96507,23.71939,,,,,,,,,
12143565,private room in spacious apartment,37.96484,23.74369,,,,,,,,,
12146969,exarchia with love,37.98874,23.74121,,,,,,,,,
12149223,Studio downtown Athens,37.98544,23.73294,,,,,,,,,
12149778,Acropolis views artistic flat with huge balcony,37.96521,23.73649,,,,,,,,,
12152251,διαμερισμα κεντρο Αθηνας,37.9978,23.73792,,,,,,,,,
12165789,VILLA OLIVIA Philopappou,37.96457,23.71716,,,,,,,,,
12168858,LOVELY private double room walk Acropolis Athens,37.96244,23.7217,,,,,,,,,
12177940,1930᾽s fully renovated listed Athenian house,37.96621,23.72426,,,,,,,,,
12179521,Athens Center Exarcheia Komninon Apt No1,37.98728,23.74085,,,,,,,,,
12181483,Downtown Victoria Hestia,37.995,23.73085,,,,,,,,,
12182711,Diamond Penthouse + Roofgarden with View,37.99917,23.76636,,,,,,,,,
12193432,Nice flat terrace  - center Athens,37.9866,23.73997,,,,,,,,,
12205814,Super (Hidden by Airbnb) Acropolis View Dream (5),37.97964,23.71242,,,,,,,,,
12222312,Athens Loft with Acropolis view!,37.98025,23.72561,,,,,,,,,
12236800,Hypnos στη Στέγη,37.95896,23.71955,,,,,,,,,
12242042,Acropolis 1,37.96699,23.73054,,,,,,,,,
12252714,Sunny Room Close to Parthenon,37.96466,23.72372,,,,,,,,,
12265240,"Amazing, comfy apt, close to metro and the center!",38.01207,23.73387,,,,,,,,,
12266573,comfortable apartment in Athens,37.98546,23.72453,,,,,,,,,
12283556,Spectacular Athens View!,37.99194,23.76359,,,,,,,,,
12296454,ACROPOLIS PARTHENON PLAKA CENTRAL COZY47% DISCOUNT,37.9723,23.73335,,,,,,,,,
12298777,"The DreamHouse: 5 Bedrooms under Acropolis, Plaka",37.97121,23.72898,,,,,,,,,
12304265,Green Leaf Oasis under the Acropolis,37.96876,23.72448,,,,,,,,,
12321423,HAPPY HOUSE in the CENTER OF ATHENS,38.01038,23.73148,,,,,,,,,
12327895,Athens central and cozy flat with green view,37.96941,23.74938,,,,,,,,,
12333241,Your studio with Acropolis view,37.97811,23.72403,,,,,,,,,
12339162,The Belgian Connection in Koukaki by JJ Hospitality,37.96384,23.72488,,,,,,,,,
12354745,"Acropolis View,Central Athens Flat",37.98108,23.72595,,,,,,,,,
12356737,Ap/ment in the middle of everything,37.96293,23.73161,,,,,,,,,
12361959,Βολικό διαμέρισμα - μεζονέτα,37.98856,23.72298,,,,,,,,,
12381069,,37.99545,23.74991,,,,,,,,,
12395952,a cozy student flat downtown Athens,37.99225,23.72764,,,,,,,,,
12399378,Aphrodite downtown near Victoria,37.99727,23.73111,,,,,,,,,
12400678,Bright and airy apartment in Gazi,37.98183,23.71297,,,,,,,,,
12401489,Cozy house in the city center,37.99236,23.74869,,,,,,,,,
12406799,Best views of Athens *New*,37.97452,23.72982,,,,,,,,,
12419291,Cozy apartment in central Athens,38.00118,23.73165,,,,,,,,,
12421246,Vintage Spacious Apt Huge balcony,37.98599,23.74048,,,,,,,,,
12427549,Nice apt at the center of Athens,37.98815,23.75137,,,,,,,,,
12440119,Cozy apartment with panoramic view,37.98761,23.74782,,,,,,,,,
12444997,NakosHomes|Luxury Apartments,37.96796,23.73094,,,,,,,,,
12450920,"διπλα στα αξιοθεατα,οικογενειακο",37.95718,23.74002,,,,,,,,,
12461768,breathtaking view amazing apartment,37.9771,23.75671,,,,,,,,,
12463922,Luxury Penthouse with Acropolis View,37.97668,23.71776,,,,,,,,,
12467577,simple stay in Kato Petralona,37.96931,23.70695,,,,,,,,,
12476660,Your stay next to Acropolis!,37.96697,23.72792,,,,,,,,,
12477603,ROOM in roofgarden central house for cat lovers,37.99336,23.7665,,,,,,,,,
12486026,Daylight Apartment,37.99,23.74444,,,,,,,,,
12491911,Acropolis at Home:Loft with a View,37.97912,23.73006,,,,,,,,,
12500986,El classico in the city center 70sqm appartment,37.98704,23.72775,,,,,,,,,
12504525,Apartment in the Heart of Athens,37.97023,23.74487,,,,,,,,,
12525342,ABA - GRAND APARTMENT,37.96622,23.7318,,,,,,,,,
12527248,Captain's Quarters by the Athens Hilton,37.97467,23.74893,,,,,,,,,
12531224,Stylish Two-Bedroom flat 1rst Floor near metro,37.95872,23.73578,,,,,,,,,
12541475,Cosy 19th cent. athenian house&yard,37.98735,23.73542,,,,,,,,,
12549584,Apartment in the centre of Athens,37.99674,23.72903,,,,,,,,,
12560827,Luxurious maisonette-Acropolis view,37.96551,23.71029,,,,,,,,,
12562240,# Petite Maison at the heart of Athens !,37.97344,23.74531,,,,,,,,,
12564421,,37.97974,23.74228,,,,,,,,,
12584296,Acropolis Home Sweet Home,37.96771,23.7294,,,,,,,,,
12586886,Affordable Luxury,37.95657,23.7177,,,,,,,,,
12612983,Acropolis Boutique Suite,37.96852,23.72971,,,,,,,,,
12621927,The Parthenon Observatory apt.,37.97671,23.71709,,,,,,,,,
12627997,Acropolis majestic view cozy studio,37.96496,23.7365,,,,,,,,,
12639647,Stadium 1bdr HiEnd quiet Flat | Top Location,37.96976,23.74144,,,,,,,,,
12662264,Ambient apartment in Exarheia,37.98684,23.74086,,,,,,,,,
12662793,Amazing view  studio 6' city center,37.9937,23.76262,,,,,,,,,
12665787,"Acropolis Boutique Studio, Koukaki",37.96683,23.72856,,,,,,,,,
12668874,My Fancy Apartment (1.8km Acropolis / 5m Metro),37.95782,23.72701,,,,,,,,,
12674637,Lovely studio 10 min to Acropolis,37.98772,23.72102,,,,,,,,,
12689332,"Home in Centre, Exarhia",37.98615,23.74094,,,,,,,,,
12692563,"Center 5, (4-bedr)",37.98833,23.72793,,,,,,,,,
12693785,"Sweet studio, Athens center Rooftop view acropolis",37.98444,23.71971,,,,,,,,,
12697260,Bright and charming vintage home,37.99341,23.75577,,,,,,,,,
12701362,Art room 2 - Athens City Center,37.99837,23.73393,,,,,,,,,
12701396,Art Apartment Athens City Center,37.99669,23.7338,,,,,,,,,
12709075,Julia's  Athens home city center,37.95265,23.72499,,,,,,,,,
12722089,★Private 5 Star Hidden GEM Next To The Acropolis★,37.96257,23.72039,,,,,,,,,
12723631,Apartment with view in Athens,38.02504,23.73374,,,,,,,,,
12750253,"87 m2 PENTHOUSE, NEAR METRO, SUNNY",37.99028,23.75966,,,,,,,,,
12753441,"apartment, private terrace, amazing view",37.96851,23.72595,,,,,,,,,
12756417,Cozy studio in the heart of Athens,37.97858,23.73508,,,,,,,,,
12760838,ACROPOLIS VIEW!Beautiful & Perfectly Located Flat!,37.97995,23.72012,,,,,,,,,
12768748,"In the heart of Athens, NEAPOLI",37.98624,23.74399,,,,,,,,,
12795248,Metro Sygrou Fix Apt 8 min walking from Acropolis,37.96451,23.72413,,,,,,,,,
12801924,Cozy 76 sqm. flat in central Athens,38.00783,23.73822,,,,,,,,,
12840781,Alice art gallery Kolonaki DeXameni,37.97873,23.74287,,,,,,,,,
12842945,υπεροχο ρετιρε στο κεντρο αθηνας,37.96419,23.7496,,,,,,,,,
12849077,Travel Resort,37.99798,23.72925,,,,,,,,,
12858718,Light & Casual Studio@Psirri,37.97772,23.72508,,,,,,,,,
12864326,Athens City Suite - 5* stay!,37.99534,23.73842,,,,,,,,,
12877129,Modern & Charm Studio@Psirri,37.97795,23.72521,,,,,,,,,
12878287,Amazing detached house,37.95371,23.72452,,,,,,,,,
12878761,Modern & Comfy Flat/Family@Psirri,37.97571,23.72512,,,,,,,,,
12879659,Elegant TWO Rooms with PRIVATE bath in Town House,37.96732,23.72434,,,,,,,,,
12888206,AMAZING TOP LOCATION BY  ACROPOLIS.,37.9765,23.72604,,,,,,,,,
12888933,Michel's Cozy Studio,37.95759,23.73654,,,,,,,,,
12893692,Next to metro/In the center of Athens,37.99707,23.72055,,,,,,,,,
12898977,"beautiful view,quiet house,in the center of Athens",37.9702,23.74962,,,,,,,,,
12901507,Center of Athens safe flat near to metro WIFI,37.98276,23.73309,,,,,,,,,
12904452,"Warm, bright, two-storey penthouse",37.99342,23.74423,,,,,,,,,
12909612,Apartment in Gkyzi area,37.99525,23.75029,,,,,,,,,
12911092,Plaka Acropolis 80m2 boutique apt ideal location,37.974,23.731,,,,,,,,,
12913295,View of Acropolis from your bed!,37.96577,23.73409,,,,,,,,,
12913527,"KOKONI APARTMENTS AMBELOKIPI, ATHENS #.1",37.99554,23.76093,,,,,,,,,
12916798,Penthouse Studio in Central Athens,37.99411,23.72751,,,,,,,,,
12922484,Acropolis ANCIENT HISTORY CENTER,37.97581,23.71636,,,,,,,,,
12923641,Apartment,38.00553,23.73864,,,,,,,,,
12930307,⭐ Eco papercutshome -Balcony/Parking,37.98187,23.71402,,,,,,,,,
12931756,"Brand new, central, premium, cozy & convenient",37.96875,23.75306,,,,,,,,,
12938659,NEW Urban Chic Apartment near the Acropolis,37.96002,23.73032,,,,,,,,,
12939021,Athens  ancient olympic stadium apartment,37.97124,23.74219,,,,,,,,,
12942569,Luxury penthouse downtown Athens,37.98854,23.73355,,,,,,,,,
12948824,Acropolis - apartment -Monastiraki,37.97615,23.72676,,,,,,,,,
12952828,Cozy apartment in the center of Athens,37.98361,23.73835,,,,,,,,,
12961205,Διαμέρισμα στο κέντρο της πόλης,37.97966,23.74547,,,,,,,,,
12967404,Car gallery apt 5 min from metro st,38.00018,23.71646,,,,,,,,,
12976607,Amazing view of Acropolis and Anafiotika in Plaka,37.97379,23.72983,,,,,,,,,
12980598,1 BEDROOM APT - ACROPOLIS VIEW PRIVATE TERRACE,37.97723,23.72615,,,,,,,,,
12985350,City center (historic triangle) Apartment,37.97963,23.72155,,,,,,,,,
12985450,At the center of the city,37.98589,23.7433,,,,,,,,,
12992813,"Spacious apartment, central Athens",37.98897,23.76212,,,,,,,,,
12993828,Cosy and easily accessible apartment,37.96425,23.7445,,,,,,,,,
12994205,SV Acropolis Residence - 1920’s Residence,37.96909,23.72415,,,,,,,,,
12997787,Sunny apartment on nice Athens square,37.96783,23.74903,,,,,,,,,
13012033,2 bedroom Apt 2 min away from metro,37.99136,23.72315,,,,,,,,,
13012182,1 bedroom Apt 2 min away from metro,37.99318,23.72505,,,,,,,,,
13015874,Athenian house of 1920,37.99539,23.72878,,,,,,,,,
13035089,IV.Hip studio apartment in downtown Athens,37.97681,23.73303,,,,,,,,,
13035712,A cozy little home near downtown!,37.99706,23.74759,,,,,,,,,
13035789,Apartment near Acropolis,37.96308,23.72996,,,,,,,,,
13035913,III.Elegant apartment in the heart of Athens,37.97663,23.73247,,,,,,,,,
13037016,A-24. Stylish Apartment in the Center of Athens,37.9876,23.74676,,,,,,,,,
13039289,Zenios Ippokratis-Comfortable apt in Athens center,37.98421,23.7383,,,,,,,,,
13044632,Cozy central apartment,37.98555,23.71541,,,,,,,,,
13059888,Central ultra design 3b penthouse with roof garden,37.98674,23.74765,,,,,,,,,
13062896,"Lovely, sunny and comfortable downtown Athens apt.",37.98695,23.73939,,,,,,,,,
13063669,NEW 1BR architect's downtown apt/historic building,37.98357,23.73569,,,,,,,,,
13071483,Aphrodite the house of beauty - Greek god's houses,38.00959,23.73039,,,,,,,,,
13073745,An ideal hot spot for Athens lovers,37.98672,23.7352,,,,,,,,,
13075560,Calm & elegant near metro stations,38.00124,23.71655,,,,,,,,,
13086140,Kallimarmaro Residence  *****,37.96625,23.74066,,,,,,,,,
13094486,"50m from metro.Newly renovated,sunny apartment.",37.98932,23.75635,,,,,,,,,
13095350,50m from metro Sunny studio with large roof garden,37.98941,23.75568,,,,,,,,,
13098678,Cosy room in a student appartment,38.01789,23.73323,,,,,,,,,
13099190,Downtown Athens apartment,37.9662,23.74534,,,,,,,,,
13101653,Cosy studio flat 5km from downtown,38.01796,23.73455,,,,,,,,,
13105446,JASMINE in the heart of Kolonaki.,37.97657,23.74472,,,,,,,,,
13108233,Gogo new word.,37.95921,23.72536,,,,,,,,,
13110148,"Contemporary Elegance in Plaka, Athens Old Town",37.97112,23.73003,,,,,,,,,
13120190,An apartment next to everywhere!,38.00712,23.73432,,,,,,,,,
13120233,Unique and cozy house in Exarcheia,37.98667,23.73809,,,,,,,,,
13121121,Central Luxury Suite with Jacuzzi&Acropolis View,37.97873,23.70794,,,,,,,,,
13122903,"Cozy, calm central apartment, next to Kallimarmaro",37.96541,23.73871,,,,,,,,,
13123584,Central Luxury Apartment /Jacuzzi&Acropolis View,37.97862,23.71086,,,,,,,,,
13126148,"Minimal, Historical Townhouse near Athens centre!",38.00637,23.73653,,,,,,,,,
13127836,Lena’s Ηome Acropoli,37.9665,23.72391,,,,,,,,,
13134354,"6 min from City Center in Safe Area, Cosy Flat",37.99337,23.76151,,,,,,,,,
13138574,Athens-Syntagma  independent studio,37.97636,23.73045,,,,,,,,,
13145534,The monumental hostel of Athens --Mini room,37.97678,23.73018,,,,,,,,,
13147142,Private flat center of athens,37.98513,23.74194,,,,,,,,,
13150774,Luxurious appt huge veranda,38.00161,23.73913,,,,,,,,,
13163739,Little shelter on the slope of Philopappou Hill,37.96532,23.71065,,,,,,,,,
13169260,"5 min from Acropolis, New Apartment, Amazing View",37.96999,23.73081,,,,,,,,,
13169425,Comfortable downtown apartment,37.98174,23.71783,,,,,,,,,
13188948,"A penthouse with view to Acropolis,city centre.",37.98253,23.71676,,,,,,,,,
13191838,"Quiet, renovated studio near Areos Park",37.99391,23.74522,,,,,,,,,
13195012,Elegant downtown appartment,37.95541,23.72675,,,,,,,,,
13196992,Hidden Studio in Athens Centre (Exarchia),37.98683,23.73348,,,,,,,,,
13198453,In the historic center of Athens 1' to metro st.,37.98477,23.71974,,,,,,,,,
13198517,Central Area Penthouse Roof Garden Acropolis view,37.96894,23.74341,,,,,,,,,
13199026,Central & Cozy APT,38.00143,23.73221,,,,,,,,,
13199776,Cool apartment in Downtown Athens,37.98259,23.71487,,,,,,,,,
13205413,"Cozy, top-floor apartment - heart of Athens",37.96928,23.71184,,,,,,,,,
13212332,Beatiful apartment in the centre of Athens,37.98208,23.71706,,,,,,,,,
13228093,Lycabetous Sunset Apartment 65m2 - City center,37.98599,23.75257,,,,,,,,,
13246767,Luxury Suite Apt5120,37.98857,23.74975,,,,,,,,,
13252360,Cozy Apartment near center of Athens,37.99532,23.73264,,,,,,,,,
13254894,Beautiful apartment in the center of Athens,37.97312,23.74703,,,,,,,,,
13257304,Big room in Patisia area,38.01254,23.73845,,,,,,,,,
13276334,New Relaxed Central Apartment ☆ Walk Everywhere ☆,37.96686,23.73145,,,,,,,,,
13276589,Happy Place at the foot of Acropolis,37.9737,23.71849,,,,,,,,,
13285501,Penthouse with eye-level to Acropolis!,37.96728,23.71079,,,,,,,,,
13293190,cozy apartment next to Archealogical Museum,37.98883,23.73626,,,,,,,,,
13296222,"Elegant, fully equipped apt under the Acropolis",37.96759,23.72745,,,,,,,,,
13302641,Zeus-115m2 Penthouse Apartment-Acropolis view,37.97779,23.72924,,,,,,,,,
13304153,The White House Plaka Mansion by JJ Hospitality,37.97126,23.73026,,,,,,,,,
13305230,Classical Athenian residence,37.97317,23.74941,,,,,,,,,
13308906,Apartment with a gorgeous view,37.96496,23.74053,,,,,,,,,
13310071,"Spacious downtown flat, next to the Athens Hilton",37.97758,23.75255,,,,,,,,,
13311384,A sunny and modern designed 120m2 apartment,37.99739,23.77545,,,,,,,,,
13312806,"Cosy Apartment, 150m from Acropolis Metro",37.97028,23.73049,,,,,,,,,
13320183,KYMA Apartments - Athens Acropolis 8,37.96013,23.72123,,,,,,,,,
13325255,"Acropolis, Plaka",37.97468,23.72775,,,,,,,,,
13329082,Cosy studio appartment near Athens center,38.00529,23.73808,,,,,,,,,
13331887,Venus-100m2 Apartment-2 Master Bedrooms,37.97932,23.72726,,,,,,,,,
13332606,Odyssey-120m2 Apartment-Acropolis view & Sauna,37.97815,23.72693,,,,,,,,,
13337047,Apartment in Athens Downtown - Near Subway Station,37.97826,23.74931,,,,,,,,,
13338880,Ένα σπίτι στην πιο όμορφη γειτονιά της Αθήνας!!,37.97059,23.74189,,,,,,,,,
13339367,Easy going Tower of Athens,38.00095,23.73635,,,,,,,,,
13339455,Lovely loft with Akropolis view,37.96521,23.74265,,,,,,,,,
13341087,Stylish apartment 2' from National Museum,37.98815,23.73395,,,,,,,,,
13343621,The Ancient View,37.97635,23.72754,,,,,,,,,
13346189,City centre top floor studio with marvellous view,37.98518,23.7263,,,,,,,,,
13349627,Big 2 bedrooms apartment near Acropolis-7 min walk,37.96481,23.72187,,,,,,,,,
13351413,Special apartment near Acropolis(12 min walk),37.96303,23.7171,,,,,,,,,
13352562,Airy flat at 5th floor,37.9938,23.72398,,,,,,,,,
13356259,Cosy studio apartment (newly renovated),37.98986,23.7401,,,,,,,,,
13356637,Acropolis View Apartment,37.9682,23.72494,,,,,,,,,
13380245,hohoho,37.99054,23.71287,,,,,,,,,
13382357,"Comfortable apt, 2 bedrooms, 2 bathrooms. Sleeps 6",37.98009,23.7233,,,,,,,,,
13382512,Vintage styled apartment in Athens,37.95785,23.74073,,,,,,,,,
13388189,Athens House*****+Friendly and cozy,38.00917,23.72757,,,,,,,,,
13388921,Aesthetic loft with great view of Parthenon.,37.97856,23.72914,,,,,,,,,
13405486,Beautiful flat in Acropolis Koukaki,37.96556,23.72406,,,,,,,,,
13409388,Beautiful rooftop flat with Acropolis view,37.97292,23.73174,,,,,,,,,
13410584,Spacious Loft w. huge balcony _ Acropolis view,37.97909,23.72243,,,,,,,,,
13414771,Nice Apartment Near City Center,37.99005,23.76802,,,,,,,,,
13423948,#1 Joint Colors Apartments,38.01164,23.73527,,,,,,,,,
13430048,ATHENS VIEW LOFT - 01,37.96162,23.72879,,,,,,,,,
13430159,Lux apt w/ Acropolis view,37.97482,23.73023,,,,,,,,,
13432293,Retro apartment near metro and city center,37.97241,23.74653,,,,,,,,,
13442204,Athens Best View - Metz 2,37.96795,23.73778,,,,,,,,,
13454446,Luxurious flat in Kolonaki,37.97966,23.73772,,,,,,,,,
13456339,"2 stylish, apts, balconies, local feel, sleep 12",37.98009,23.7233,,,,,,,,,
13457280,"Central flat, next to the Metro station",37.98621,23.72059,,,,,,,,,
13464869,Central apartment 59m2,37.98378,23.74155,,,,,,,,,
13472096,"Ancient Olympic Stadium,between all monuments",37.96961,23.74367,,,,,,,,,
13476393,Spacious Penthouse in Athens center,37.97883,23.75336,,,,,,,,,
13477748,Athenian Neoclassical Apartment,37.99103,23.74617,,,,,,,,,
13485485,Cute apartment in the historic center of Athens,37.96869,23.70892,,,,,,,,,
13486998,1 bedroom flat in central Athens,38.00202,23.72842,,,,,,,,,
13494666,Top Floor Studio Near Metro,37.97648,23.75433,,,,,,,,,
13500017,"Sunny, Good Vibes, Three bed flat (SGVT)",37.99624,23.73358,,,,,,,,,
13502189,Central apartment in Plaka near the Acropolis,37.97437,23.73071,,,,,,,,,
13502753,Newly Furnished city center flat,37.99772,23.72703,,,,,,,,,
13505582,Elegant pied-a-terre on a quiet pedestrian street,37.98032,23.73601,,,,,,,,,
13512841,75 sq.m Spacious apartment near Metro,37.9714,23.74273,,,,,,,,,
13518239,Plug & Stay,37.97172,23.74764,,,,,,,,,
13520236,"Grey Apartment - Athens Center, 4 BD, 2 BATH",37.99669,23.73595,,,,,,,,,
13520652,"Green Apartment - Athens Center, 3 BD, 1 BATH",37.99669,23.73595,,,,,,,,,
13520956,Central penthouse+ terrace Lycabettus view+jacouzi,37.99025,23.74496,,,,,,,,,
13521853,"Luxury Studio Flat in Kolonaki, Center of Athens.",37.9775,23.74284,,,,,,,,,
13530593,"Appartment in the Athens, near Lecabettus, Metro",37.98737,23.75139,,,,,,,,,
13535340,"Colorful and calm, 3 stops from historic centre.",38.00086,23.72561,,,,,,,,,
13542547,Acropolis area designer apartment,37.9657,23.7224,,,,,,,,,
13543869,A home away from home – excellent location!,37.9716,23.74339,,,,,,,,,
13547532,"Central, safe area, 2bedrooms with balcony!!!!",37.97364,23.74763,,,,,,,,,
13553080,Industrial loft-Acropolis view,37.98028,23.72483,,,,,,,,,
13554522,ATHENStay Superior Apartment,37.98649,23.73154,,,,,,,,,
13563825,"Acropolis 1/5 km walking ,brand new",37.96359,23.72085,,,,,,,,,
13567058,Location location location!,37.97771,23.74929,,,,,,,,,
13570287,Apartment in Historical Center 2,37.98183,23.71893,,,,,,,,,
13579623,studio gianni,38.00239,23.73854,,,,,,,,,
13582987,"Zeus Temple view 2BD Apartment, Acropolis - Plaka",37.96766,23.7329,,,,,,,,,
13587181,Appartment in centre of Athens near park.,37.99969,23.743,,,,,,,,,
13589098,a stylish 75m2 apartment downtown,37.99251,23.76559,,,,,,,,,
13592307,Athens Modern Penthouse,37.99548,23.73642,,,,,,,,,
13594084,Central Bright  Studio Flat near KALLIMARMARON,37.9708,23.74671,,,,,,,,,
13595845,Cosy Apartment Downtown,37.98317,23.72408,,,,,,,,,
13603658,"Feel at home, in Athens.",37.96891,23.73817,,,,,,,,,
13608637,"In the heart of Athens, Thissio is the place!",37.9768,23.71808,,,,,,,,,
13609261,Flat in the Heart of Athens,37.96145,23.7279,,,,,,,,,
13613211,maro,37.96592,23.74227,,,,,,,,,
13614439,Live Downtown in Athens,37.98701,23.72446,,,,,,,,,
13617762,Cozy apartment in central Athens,37.97101,23.74456,,,,,,,,,
13618646,ILLISIA roof apartment,37.97757,23.75552,,,,,,,,,
13621619,Modern studio in the heart of Athens,37.98508,23.72632,,,,,,,,,
13621887,Well connected appartments in the centre of Athens,37.98503,23.72763,,,,,,,,,
13628361,Modern apartment in the centre of Athens,37.98667,23.72903,,,,,,,,,
13631014,Amazing 2 storey apartment for 7 people in Thessio,37.97366,23.71957,,,,,,,,,
13632650,New apartment near center,37.99059,23.71059,,,,,,,,,
13635025,Fully Renovated 1 bedroom Apt next to Acropolis,37.9757,23.7175,,,,,,,,,
13635795,Quiet Corner near Acropolis AMA/REG No (Phone number hidden by Airbnb),37.95608,23.72928,,,,,,,,,
13638778,Cozy & quiet apartment for exploring Athens,37.96962,23.74642,,,,,,,,,
13640997,Zui,38.01487,23.73742,,,,,,,,,
13644911,"Apt. Downtown, historic triangle, Acropolis view",37.98018,23.72329,,,,,,,,,
13646129,Studio apartment in the heart of Athens,37.97793,23.73653,,,,,,,,,
13647651,Unusual 210m2 at the Picturesque Old Center-Athens,37.9916,23.73251,,,,,,,,,
13654121,Artistic apartment,37.97799,23.73869,,,,,,,,,
13663237,Artistic room near the city center of Athens,38.02601,23.73533,,,,,,,,,
13667554,"NEW!!Acropolis view..Athens 360""..2min from Metro!",37.97765,23.72527,,,,,,,,,
13670540,Private Room in the center of Athens,37.98723,23.72575,,,,,,,,,
13673148,Modern hideaway,37.98904,23.75923,,,,,,,,,
13679827,In the other side of Acropolis,37.96847,23.71372,,,,,,,,,
13683074,Cosy and luminous studio in the center of Athens,37.99741,23.73877,,,,,,,,,
